FAC_PARTY_ID,SERVICE_TYPE_CD,NAME,ADDRESS_1,ADDRESS_2,CITY,POSTAL_CODE,LATITUDE,LONGITUDE,PHONE,WEBSITE,EMAIL,OP_WEEKDAY_YN,OP_WEEKEND_YN,OP_STAT_HOLIDAY_YN,OP_OVERNIGHT_YN,OP_EXT_WEEKDAY_BEFORE6AM_YN,OP_EXT_WEEKDAY_AFTER7PM_YN,SRVC_UNDER36_YN,SRVC_30MOS_5YRS_YN,SRVC_LICPRE_YN,SRVC_OOS_KINDER_YN,SRVC_OOS_GR1_AGE12_YN,LANG_CANTONESE_YN,LANG_PUNJABI_YN,LANG_MANDARIN_YN,LANG_FRENCH_YN,LANG_SPANISH_YN,LANG_OTHER_YN,PROVIDE_CD_MEALS,PROVIDE_CD_PICKUP,PRESCHOOL_MORNING_YN,PRESCHOOL_MIDDAY_YN,PRESCHOOL_AFTERNOON_YN,ABORIGINAL_PROGRAMMING_YN,ACCOMMODATE_SPECIAL_NEEDS,ECE_CERTIFICATION_YN,ELF_PROGRAMMING_YN,VACANCY_SRVC_UNDER36,VACANCY_SRVC_30MOS_5YRS,VACANCY_SRVC_LICPRE,VACANCY_SRVC_OOS_GR1_AGE12,VACANCY_LAST_UPDATE,HA_FAC_INSPEC_RPTS,IS_INCOMPLETE_IND,IS_CCFRI_AUTH,IS_DUPLICATE
3580,Licensed Family,Rainbow Daycare,201 6Th Ave E,,Prince Rupert,V8J 1W2,54.314291,-130.316674,250-600-4365,,lizzie71@live.ca,N,N,N,N,N,N,Y,Y,N,N,N,N,N,N,N,N,N,Included in fee,Include in fee,N,N,N,N,N,N,N,N,N,N,N,2021/09/15,http://www.healthspace.ca/Clients/NHA/NHA_Website.nsf,N,Y,N
3581,Licensed Group,Bethel Children's Hour,1-8920 Broadway,,Chilliwack,V2P 5W1,49.164171,-121.932959,604-794-7114,,robnadine@shaw.ca,N,N,N,N,N,N,N,N,N,N,N,N,N,N,N,N,N,,,N,N,N,N,N,N,N,N,N,N,N,2021/05/31,http://www.healthspace.ca/fha/childcare,N,N,N
3582,Licensed Family,Tracy's Tots,11662 94 Ave,,Delta,V4C 3R6,49.173147,-122.899526,604-588-0699,,tracymolson@hotmail.com,N,N,N,N,N,N,N,N,N,N,N,N,N,N,N,N,N,,,N,N,N,N,N,N,N,Y,Y,N,N,2021/09/01,http://www.healthspace.ca/fha/childcare,N,Y,N
3583,Licensed Group,Aberdeen Hall Preparatory School,950 Academy Way,,Kelowna,V1V 3A4,49.92725,-119.408161,250-491-1270,,susanne.raye@aberdeenhall.com,N,N,N,N,N,N,N,N,N,N,N,N,N,N,N,N,N,,,N,N,N,N,N,N,N,N,N,N,N,2021/07/06,https://www.interiorhealth.ca/HedgehogPortal/facility/Table,N,Y,N
3584,Licensed Family,Tiny Tots Playhouse Family Child Care,3217 Richmond Street,,Richmond,V7E 2V7,49.128634,-123.188851,604-285-6013,,michelle@tinytotsplayhouese.com,N,N,N,N,N,N,N,N,N,N,N,N,N,N,N,N,N,,,N,N,N,N,N,N,N,N,N,N,N,2021/09/10,https://inspections.vcha.ca/ChildCare/Table,N,Y,N
3585,Licensed Family,Discovery Family Child Care,1958 Napier St,,Vancouver,V5L 2N7,49.274604,-123.064243,604-369-0488,,sarahandraycc@gmail.com,N,N,N,N,N,N,N,N,N,N,N,N,N,N,N,N,N,,,N,N,N,N,N,N,N,N,N,N,N,2021/09/26,http://www.vch.ca/your_environment/facility_licensing/residential_care/inspection_reports/,N,Y,N
3586,Licensed Group,Sandbox Station Daycare,9574 160Th St,,Surrey,V4N 2R6,49.176369,-122.778564,604-771-6825,,minbilg@gmail.com,N,N,N,N,N,N,N,N,N,N,N,N,N,N,N,N,N,,,N,N,N,N,N,N,N,N,Y,N,Y,2021/09/13,http://www.healthspace.ca/fha/childcare,N,Y,N
3587,Licensed Group,Sandpiper Group Day Care,2805 Revelstoke Crt,,Vancouver,V6T 1S1,49.26086,-123.23505,604-822-9386,,joel.kobylka@ubc.ca,N,N,N,N,N,N,N,N,N,N,N,N,N,N,N,N,N,,,N,N,N,N,N,N,N,N,N,N,N,2021/09/23,https://inspections.vcha.ca/ChildCare/Table,N,Y,N
3588,Licensed Group,Smuyuq'wa' Lelum Ece Centre,4602 Blue Heron Dr,,Tsawwassen,V4M 4G2,49.037366,-123.096016,604-943-2112,,cgurniak@tsawwassenfirstnation.com,N,N,N,N,N,N,N,N,N,N,N,N,N,N,N,N,N,,,N,N,N,N,N,N,N,N,N,N,N,2021/08/25,http://www.healthspace.ca/fha/childcare,N,Y,N
3589,Licensed Group,Creative Explorer's Daycare,4  13570  78Th Ave,,Surrey,V3W 8V3,49.144339,-122.846633,604-725-7071,,creativeexplorersdaycare@gmail.com,N,N,N,N,N,N,N,N,N,N,N,N,N,N,N,N,N,,,N,N,N,N,N,N,N,Y,Y,Y,N,2021/09/15,http://www.healthspace.ca/fha/childcare,N,Y,N
3590,Licensed Family,Momma Joe's Day Care,1823 Hawk Dr,,Courtenay,V9N 8Z1,49.694493,-124.962477,250-703-6313,,jnjslater@outlook.com,N,N,N,N,N,N,N,N,N,N,N,N,N,N,N,N,N,,,N,N,N,N,N,N,N,N,N,N,N,2021/09/15,http://www.healthspace.ca/Clients/VIHA/VIHA_Website.nsf/CCFL-Frameset,N,Y,N
3591,Licensed Family,Love * Joy * Peace * Family Child Care,8236 French St,,Vancouver,V6P 4W1,49.211341,-123.138752,604-876-9943,,ljpfamilychildcare@gmail.com,N,N,N,N,N,N,N,N,N,N,N,N,N,N,N,N,N,,,N,N,N,N,N,N,N,Y,Y,N,N,2021/09/17,https://inspections.vcha.ca/ChildCare/Table,N,N,N
3592,Licensed Family,Langford Montessori Junior Kindergarten,1033 Jenkins Ave,,Victoria,V9B 2P1,48.44131,-123.518977,250-857-5895,www.langfordmontessori.com,langfordmontessori@gmail.com,N,N,N,N,N,N,N,N,N,N,N,N,N,N,N,N,N,,,N,N,N,N,N,N,N,N,N,N,N,2021/09/20,http://www.healthspace.ca/Clients/VIHA/VIHA_Website.nsf/CCFL-Frameset,N,N,N
3593,Licensed Family,Nana's House Family Child Care,6263 Hawkes Blvd,,Duncan,V9L 4N8,48.798052,-123.739658,250-748-6680,,guidernanasmith@gmail.com,N,N,N,N,N,N,N,N,N,N,N,N,N,N,N,N,N,,,N,N,N,N,N,N,N,N,N,N,N,2021/07/28,http://www.healthspace.ca/Clients/VIHA/VIHA_Website.nsf/CCFL-Frameset,N,Y,N
3594,Licensed Group,Panorama Ridge Children's Centre,6230 120 St,,Surrey,V3X 1Y7,49.116103,-122.890107,604-767-1201,,manu.gill27@gmail.com,N,N,N,N,N,N,N,N,N,N,N,N,N,N,N,N,N,,,N,N,N,N,N,N,N,Y,Y,Y,Y,2021/08/30,http://www.healthspace.ca/fha/childcare,N,Y,N
3595,Licensed Group,Jumpstart,107 1540 McPhee Ave,,Courtenay,V9N 3A5,49.682327,-124.997567,250-338-4288,,kathy@cvcda.ca,Y,N,N,N,N,N,N,N,Y,N,N,N,N,N,N,N,N,Not offered,Not offered,Y,N,Y,Y,Y,Y,Y,N,N,Y,N,2021/07/07,http://www.healthspace.ca/Clients/VIHA/VIHA_Website.nsf/CCFL-Frameset,N,N,N
3596,Licensed Group,Brightstart Children's Academy Ltd,1141 Riverwood Gate,,Port Coquitlam,V3B 8A2,49.264215,-122.746741,778-883-0529,,directors@brightstart.ca,N,N,N,N,N,N,N,N,N,N,N,N,N,N,N,N,N,,,N,N,N,N,N,N,N,N,N,N,N,2021/09/20,http://www.healthspace.ca/fha/childcare,N,Y,N
3597,Licensed Group,Happy May Child Care Centre Iii,201 4751 Garden City Road,,Richmond,V6X 3M7,49.177834,-123.124703,604-218-6581,,meikang@hotmail.com,N,N,N,N,N,N,N,N,N,N,N,N,N,N,N,N,N,,,N,N,N,N,N,N,N,N,N,N,Y,2021/09/02,https://inspections.vcha.ca/ChildCare/Table,N,Y,N
3598,Licensed Family,Play Care Centre,4251 Campobello Pl,,Richmond,V7E 5G5,49.136965,-123.17903,778-889-4865,,playcarecentre@gmail.com,N,N,N,N,N,N,N,N,N,N,N,N,N,N,N,N,N,,,N,N,N,N,N,N,N,N,N,N,N,2021/09/06,https://inspections.vcha.ca/ChildCare/Table,N,Y,N
3599,Licensed Family,Blossom Childcare Centre,35366 McKee Rd,,Abbotsford,V2S 8L5,49.063475,-122.244882,604-850-2231,,lombardronel64@gmail.com,N,N,N,N,N,N,N,N,N,N,N,N,N,N,N,N,N,,,N,N,N,N,N,N,N,N,Y,N,N,2021/09/01,http://www.healthspace.ca/fha/childcare,N,Y,N
3600,Licensed Group,Kootenay Kinderschool,523 Mill St,,Nelson,V1L 4S2,49.489494,-117.290555,250-352-5018,,tsegstro@hotmail.com,N,N,N,N,N,N,N,N,N,N,N,N,N,N,N,N,N,,,N,N,N,N,N,N,N,N,N,N,N,2021/06/22,https://www.interiorhealth.ca/HedgehogPortal/facility/Table,N,Y,N
3601,Licensed Group,Lil' Chickadees Infant/Toddler Child Care Centre,9620 Snowdon Ave,,Richmond,V7A 2M1,49.137512,-123.117279,604-271-2227,,lilchickadees@hotmail.com,N,N,N,N,N,N,N,N,N,N,N,N,N,N,N,N,N,,,N,N,N,N,N,N,N,Y,N,N,N,2021/09/17,https://inspections.vcha.ca/ChildCare/Table,N,Y,N
3602,Licensed Family,Jenn's Playhouse,1203 Alexander Dr,,Golden,V0A 1H0,51.292067,-116.958262,250-344-6955,,jenn69is@hotmail.com,Y,N,N,N,N,N,Y,Y,N,Y,Y,N,N,N,N,N,N,Not offered,Include in fee,N,N,N,N,N,N,N,N,N,N,N,2021/09/27,https://www.interiorhealth.ca/HedgehogPortal/facility/Table,N,Y,N
3603,Licensed Group,Tree Of Life Childcare,4381 46A St,,Delta,V4K 2M2,49.083179,-123.098141,604-446-6171,,treeoflife_childcare@hotmail.com,N,N,N,N,N,N,N,N,N,N,N,N,N,N,N,N,N,,,N,N,N,N,N,N,N,N,Y,N,Y,2021/09/06,http://www.healthspace.ca/fha/childcare,N,N,N
3604,Licensed Family,Laugh And Learn Childcare,1867 Coldwater Crt,,Kamloops,V2E 2R5,50.6589,-120.260484,250-314-9774,,laughandlearnkamloops@gmail.com,N,N,N,N,N,N,N,N,N,N,N,N,N,N,N,N,N,,,N,N,N,N,N,N,N,N,N,N,N,2021/09/05,https://www.interiorhealth.ca/HedgehogPortal/facility/Table,N,Y,N
3605,Licensed Group,Elgin Centre,3530 144Th St,,Surrey,V4P 2A1,49.065885,-122.822588,604-598-7967,,rlowens@surrey.ca,N,N,N,N,N,N,N,N,N,N,N,N,N,N,N,N,N,,,N,N,N,N,N,N,N,N,N,N,N,2021/09/27,http://www.healthspace.ca/fha/childcare,N,Y,N
3606,Licensed Group,Morgan Point Children's Centre,3366 156A St,,Surrey,V3S 9Y7,49.063199,-122.788496,604-760-6842,,morgan_point@hotmail.com,N,N,N,N,N,N,N,N,N,N,N,N,N,N,N,N,N,,,N,N,N,N,N,N,N,N,N,N,N,2021/07/08,http://www.healthspace.ca/fha/childcare,N,N,N
3607,Licensed Group,Sapphire Montessori Academia Inc,11315 75 Ave,,Delta,V4C 1H4,49.140324,-122.909308,604-999-8162,,littleharvardcentre@hotmail.com,N,N,N,N,N,N,N,N,N,N,N,N,N,N,N,N,N,,,N,N,N,N,N,N,N,N,Y,Y,Y,2021/07/07,http://www.healthspace.ca/fha/childcare,N,Y,N
3608,Licensed Group,Paradise Child Care Centres Ltd.,330 Craig St,,Parksville,V9P 2G5,49.314303,-124.311162,250-586-8688,,paradisecentrebc@gmail.com,N,N,N,N,N,N,N,N,N,N,N,N,N,N,N,N,N,,,N,N,N,N,N,N,N,N,N,N,N,2021/09/17,,N,Y,N
3609,Licensed Group,Sabreland Daycare,310 Nechako Ave,,Mackenzie,V0J 2C0,55.341271,-123.103053,250-997-6340,,mnorthcott1@gmail.com,N,N,N,N,N,N,N,N,N,N,N,N,N,N,N,N,N,,,N,N,N,N,N,N,N,N,N,N,N,2021/07/05,http://www.healthspace.ca/Clients/NHA/NHA_Website.nsf,N,Y,N
3610,Licensed Group,Kelowna Stepping Stones Early Learning Centre Ltd.,4713 Gordon Dr,,Kelowna,V1W 4P4,49.811614,-119.480773,250-764-3667,,steppingstonespreschool@shaw.ca,N,N,N,N,N,N,N,N,N,N,N,N,N,N,N,N,N,,,N,N,N,N,N,N,N,N,Y,Y,N,2021/07/05,https://www.interiorhealth.ca/HedgehogPortal/facility/Table,N,Y,N
3611,Licensed Group,The Kids Castle Daycare Ltd.,685 Queens Rd W,,North Vancouver,V7N 2L2,49.3363,-123.087648,604-980-7871,,,N,N,N,N,N,N,N,N,N,N,N,N,N,N,N,N,N,,,N,N,N,N,N,N,N,N,N,N,N,2021/09/15,https://inspections.vcha.ca/ChildCare/Table,N,Y,Y
3612,Licensed Family,Hillside Montessori Childcare,1905 Latimer Rd,,Nanaimo,V9S 2W3,49.189548,-123.984493,250-729-7265,,hillsidemontessoridaycare@gmail.com,N,N,N,N,N,N,N,N,N,N,N,N,N,N,N,N,N,,,N,N,N,N,N,N,N,N,Y,N,N,2021/09/16,http://www.healthspace.ca/Clients/VIHA/VIHA_Website.nsf/CCFL-Frameset,N,Y,N
3613,Licensed Family,Besma Family Child Care,14747 108A Ave,,Surrey,V3R 1W7,49.199802,-122.813892,778-394-3659,,rhodabaluyut@gmail.com,N,N,N,N,N,N,N,N,N,N,N,N,N,N,N,N,N,,,N,N,N,N,N,N,N,N,N,N,N,2021/09/17,http://www.healthspace.ca/fha/childcare,N,Y,N
3614,Licensed Group,Aubrey Daycare Centre,949 Sperling Ave,,Burnaby,V5B 4H7,49.275772,-122.964678,604-677-0012,,info@aubreydaycare.com,N,N,N,N,N,N,N,N,N,N,N,N,N,N,N,N,N,,,N,N,N,N,N,N,N,N,N,N,N,2021/09/18,http://www.healthspace.ca/fha/childcare,N,Y,N
3615,Licensed Group,Cityreach Out Of School Care,2650 Slocan St,,Vancouver,V5M 4E9,49.261159,-123.048892,778-808-6686,,jordang@cityreach.org,N,N,N,N,N,N,N,N,N,N,N,N,N,N,N,N,N,,,N,N,N,N,N,N,N,N,Y,N,Y,2021/09/10,https://inspections.vcha.ca/ChildCare/Table,N,Y,N
3616,Licensed Group,Auklet Group Day Care,5615 Osoyoos,,Vancouver,V6T 1S1,49.261985,-123.234863,604-822-6238,,joel.kobylka@ubc.ca,N,N,N,N,N,N,N,N,N,N,N,N,N,N,N,N,N,,,N,N,N,N,N,N,N,N,N,N,N,2021/09/23,https://inspections.vcha.ca/ChildCare/Table,N,Y,N
3617,Licensed Family,Kare-A-Lot Early Learning Centre,3779 Glover Ave,Rr 4,Armstrong,V0E 1B4,50.449361,-119.210343,250-546-0500,www.karealot.ca,karyn@karealot.ca,N,N,N,N,N,N,N,N,N,N,N,N,N,N,N,N,N,,,N,N,N,N,N,N,N,N,N,N,N,2021/08/31,https://www.interiorhealth.ca/HedgehogPortal/facility/Table,N,Y,N
3618,Licensed Group,North Shore Child Care Centre,4085 Dollare Road,,North Vancouver,V7G 1A5,49.307403,-122.958903,604-315-6722,,info@northshorechildcare.ca,N,N,N,N,N,N,N,N,N,N,N,N,N,N,N,N,N,,,N,N,N,N,N,N,N,N,Y,N,Y,2021/08/20,https://inspections.vcha.ca/ChildCare/Table,N,Y,N
3619,Licensed Group,North Shore Child Care Centre,4085 Dollar Road,,North Vancouver,V7G 1A5,49.307403,-122.958903,604-315-6722,,info@northshorechildcare.ca,N,N,N,N,N,N,N,N,N,N,N,N,N,N,N,N,N,,,N,N,N,N,N,N,N,N,Y,N,Y,2021/06/28,https://inspections.vcha.ca/ChildCare/Table,N,Y,N
3620,Licensed Group,Butterfly Progressive Montessori Preschool Ltd.,7360 Lombard Rd,,Richmond,V7C 3N1,49.159574,-123.164874,604-241-2511,,theresalee.butterfly@gmail.com,N,N,N,N,N,N,N,N,N,N,N,N,N,N,N,N,N,,,N,N,N,N,N,N,N,N,N,N,N,2021/07/02,https://inspections.vcha.ca/ChildCare/Table,N,N,N
3621,Licensed Group,Club K.I.D.S. Cherry Hill - Room #35,32557 Best Ave,,Mission,V2V 3T3,49.152271,-122.322499,604-820-5360,,smccormick@mission.ca,N,N,N,N,N,N,N,N,N,N,N,N,N,N,N,N,N,,,N,N,N,N,N,N,N,N,Y,N,Y,2021/07/06,http://www.healthspace.ca/fha/childcare,N,N,N
3622,Licensed Group,Morning Glory Children's Centre,9491 Ash Street,,Richmond,V7A 2T7,49.145371,-123.120545,604-272-2821,,morningglorymontessori@hotmail.com,N,N,N,N,N,N,N,N,N,N,Y,N,N,N,N,N,N,Extra fee,Not offered,N,N,N,N,N,N,N,N,N,N,Y,2021/09/15,https://inspections.vcha.ca/ChildCare/Table,N,Y,N
3623,Licensed Group,Msa Montessori Preschool,33676 St. Olaf Ave,,Abbotsford,V4X 1T6,49.106986,-122.291858,604-820-4987,,msamontessori@hotmail.com,N,N,N,N,N,N,N,N,N,N,N,N,N,N,N,N,N,,,N,N,N,N,N,N,N,N,N,Y,N,2021/09/13,http://www.healthspace.ca/fha/childcare,N,N,N
3624,Licensed Family,Mountains Of Fun Daycare Inc,1336 16Th St E,,North Vancouver,V7J 1L4,49.323069,-123.037538,604-728-7757,,max@mountainsoffundaycare.com,N,N,N,N,N,N,N,N,N,N,N,N,N,N,N,N,N,,,N,N,N,N,N,N,N,N,N,N,N,2021/09/22,https://inspections.vcha.ca/ChildCare/Table,N,Y,N
3625,Licensed Family,Bouncy Ball Family Daycare,2820 Haliday Cres,,Nanaimo,V9S 3M9,49.204958,-123.977868,250-585-3558,,elaineball5@hotmail.com,N,N,N,N,N,N,N,N,N,N,N,N,N,N,N,N,N,,,N,N,N,N,N,N,N,N,Y,N,N,2021/09/16,http://www.healthspace.ca/Clients/VIHA/VIHA_Website.nsf/CCFL-Frameset,N,Y,N
3626,Licensed Group,Just For Kids,409  9025  158Th St,,Surrey,V4N 2Y6,49.167144,-122.784751,604-512-9020,,just4kids@shaw.ca,N,N,N,N,N,N,N,N,N,N,N,N,N,N,N,N,N,,,N,N,N,N,N,N,N,N,N,N,N,2021/09/24,http://www.healthspace.ca/fha/childcare,N,Y,N
3627,Licensed Group,Tyee Out Of School Care,3525 Dumfries,,Vancouver,V5N 3S5,49.253413,-123.074013,604-875-9111,,central@anhbc.org,N,N,N,N,N,N,N,N,N,N,N,N,N,N,N,N,N,,,N,N,N,N,N,N,N,N,N,N,Y,2021/06/28,https://inspections.vcha.ca/ChildCare/Table,N,Y,N
3628,Licensed Group,Leapin Lizard's Daycares Inc. West Bench,1604 West Bench Road,,Penticton,V2A 8Z3,49.501105,-119.63116,250-496-0081,,leapinlizardsdaycares@gmail.com,N,N,N,N,N,N,N,N,N,N,N,N,N,N,N,N,N,,,N,N,N,N,N,N,N,N,Y,N,Y,2021/09/02,https://www.interiorhealth.ca/HedgehogPortal/facility/Table,N,Y,N
3629,Licensed Group,Leapin Lizard's Daycares Inc. Columbia,1437 Allison Street,,Penticton,V2A 3X5,49.485872,-119.557543,250-496-0081,,leapinlizardsdaycares@gmail.com,N,N,N,N,N,N,N,N,N,N,N,N,N,N,N,N,N,,,N,N,N,N,N,N,N,N,N,N,N,2021/09/02,https://www.interiorhealth.ca/HedgehogPortal/facility/Table,N,Y,N
3630,Licensed Group,Tree House Children's Centre,5684 Unsworth Rd,,Chilliwack,V2R 5L1,49.105328,-121.997268,604-824-1234,,tree.house.1234@hotmail.com,N,N,N,N,N,N,N,N,N,N,N,N,N,N,N,N,N,,,N,N,N,N,N,N,N,N,N,N,N,2021/09/15,http://www.healthspace.ca/fha/childcare,N,N,N
3631,Licensed Family,Sonya's Family Daycare,2900 Upland St,,Prince George,V2L 2W6,53.890598,-122.760409,250-561-2080,,sonyanlu@telus.net,N,N,N,N,N,N,N,N,N,N,N,N,N,N,N,N,N,,,N,N,N,N,N,N,N,N,N,N,N,2021/09/24,http://www.healthspace.ca/Clients/NHA/NHA_Website.nsf/CCFL-Frameset,N,Y,N
3632,Licensed Family,Solid Foundations Family Daycare,2626 Tweedsmuir Ave,,Prince George,V2N 1E7,53.89579,-122.780739,250-614-9226,,lafoux@telus.net,N,N,N,N,N,N,N,N,N,N,N,N,N,N,N,N,N,,,N,N,N,N,N,N,N,N,N,N,N,2021/09/15,http://www.healthspace.ca/Clients/NHA/NHA_Website.nsf/CCFL-Frameset,N,Y,N
3633,Licensed Group,Graham Montessori School,2 - 1001 Royal Ave,,New Westminster,V3M 1K3,49.202128,-122.917985,778-397-0191,,mgog@shaw.ca,Y,N,N,N,N,N,Y,Y,Y,Y,Y,N,N,N,Y,N,Y,Not offered,Include in fee,Y,N,N,Y,Y,Y,Y,N,Y,N,Y,2021/09/06,http://www.healthspace.ca/fha/childcare,N,Y,N
3634,Licensed Group,Hand In Hand - Ten Broeck Elementary,2580 Stanley St,,Abbotsford,V2T 2R4,49.049888,-122.34526,604-859-1843,,ljohnson@handinhand.ca,N,N,N,N,N,N,N,N,N,N,N,N,N,N,N,N,N,,,N,N,N,N,N,N,N,N,Y,N,Y,2021/09/10,http://www.healthspace.ca/fha/childcare,N,Y,N
3635,Licensed Group,Happy May Child Care Centre Iv,220 4751 Garden City Road,,Richmond,V6X 3M7,49.177834,-123.124703,604-218-6581,,meikang@hotmail.com,N,N,N,N,N,N,N,N,N,N,N,N,N,N,N,N,N,,,N,N,N,N,N,N,N,N,Y,N,N,2021/09/12,https://inspections.vcha.ca/ChildCare/Table,N,Y,N
3636,Licensed Group,Queneesh After School Club,2345 Mission Rd,,Courtenay,V9N 9E9,49.713181,-124.973104,250-898-7587,,queneeshafterschool@shaw.ca,N,N,N,N,N,N,N,N,N,N,N,N,N,N,N,N,N,,,N,N,N,N,N,N,N,N,N,N,N,2021/09/20,http://www.healthspace.ca/Clients/VIHA/VIHA_Website.nsf/CCFL-Frameset,N,N,N
3637,Licensed Group,Island Montessori House School,5575 West Saanich Road,,Victoria,V9E 2G1,48.533795,-123.436589,250-592-4411,,achen@islandmontessori.com,Y,N,N,N,N,N,Y,Y,Y,N,N,N,N,N,N,N,N,Not offered,Not offered,Y,N,N,N,N,N,N,N,N,N,N,2021/09/17,http://www.healthspace.ca/Clients/VIHA/VIHA_Website.nsf/CCFL-Frameset,N,Y,N
3638,Licensed Family,Nini Family Child Care,565 50Th Ave E,,Vancouver,V5X 1A9,49.224809,-123.093074,604-876-6519,,azarkhorramshahi@yahoo.ca,N,N,N,N,N,N,N,N,N,N,N,N,N,N,N,N,N,Not offered,Not offered,N,N,N,N,N,N,N,N,N,N,N,2021/09/17,http://www.vch.ca/your_environment/facility_licensing/residential_care/inspection_reports/,N,Y,N
3639,Licensed Group,Albion Active Kids Club,10031 240Th St,,Maple Ridge,V2W 1G2,49.185102,-122.558349,604-467-7453,,akc@mapleridge.ca,,,,,,,,,,,,,,,,,,,,,,,,,,,,,,,,,Y,N,N
3640,Licensed Group,Little Bright Minds Preschool Ltd.,11451 90 Ave,,Delta,V4C 3H3,49.166928,-122.905382,778-387-0061,,brightmindsgifted@gmail.com,N,N,N,N,N,N,N,N,N,N,N,N,N,N,N,N,N,,,N,N,N,N,N,N,N,N,N,N,N,2021/09/15,http://www.healthspace.ca/fha/childcare,N,N,N
3641,Licensed Group,Blueridge Out Of School Care,2650 Bronte Drive,,North Vancouver,V7H 1M4,49.323947,-123.000482,604-812-4449,,faribal@telus.net,N,N,N,N,N,N,N,N,N,N,N,N,N,N,N,N,N,Not offered,Not offered,N,N,N,N,N,N,N,N,Y,N,Y,2021/07/11,https://inspections.vcha.ca/ChildCare/Table,N,Y,N
3642,Licensed Family,Ospring Daycare,20110 Ospring St,,Maple Ridge,V2X 0G5,49.205988,-122.663973,604-551-3401,,jessieresto@hotmail.com,N,N,N,N,N,N,N,N,N,N,N,N,N,N,N,N,N,,,N,N,N,N,N,N,N,Y,N,N,N,2021/09/15,,N,Y,N
3643,Licensed Family,Abc Family Child Care Centre,4800 Bellevue Dr,,Vernon,V1T 9L5,50.252325,-119.297963,250-545-4796,,tracyfrancis@live.ca,,,,,,,,,,,,,,,,,,,,,,,,,,,,,,,,,Y,Y,N
3644,Licensed Family,Moberly Family Child Care,1052 61St Ave E,,Vancouver,V5X 2C4,49.214449,-123.084387,778-895-3185,,madeehask@hotmail.com,N,N,N,N,N,N,N,N,N,N,N,N,N,N,N,N,N,,,N,N,N,N,N,N,N,N,N,N,N,2021/09/14,https://inspections.vcha.ca/ChildCare/Table,N,N,N
3645,Licensed Group,Okanagan Boys And Girls Clubs - Hudson Road,1221 Hudson Road,,Kelowna,V1Z 1J5,49.860801,-119.565464,250-762-3914,,dwalker@boysandgirlsclubs.ca,N,N,N,N,N,N,N,N,N,N,N,N,N,N,N,N,N,,,N,N,N,N,N,N,N,N,N,N,N,2021/07/09,http://www.interiorhealth.ca/YourEnvironment/InspectionReports/Pages/default.aspx,N,Y,N
3646,Licensed Group,Bgccvi - Aspen Park,2250 Bolt Ave,,Comox,V9M 4E7,49.685158,-124.945965,250-650-2274,,aspenpark@bgccvi.com,N,N,N,N,N,N,N,N,N,N,N,N,N,N,N,N,N,Not offered,Not offered,N,N,N,N,N,N,N,N,Y,N,Y,2021/09/17,,N,Y,N
3647,Licensed Group,Trafalgar Out Of School Care,4020 Trafalgar Street,,Vancouver,V6L 2M5,49.25013,-123.164263,604-732-8220,,accounts@tooscs.org,N,N,N,N,N,N,N,N,N,N,N,N,N,N,N,N,N,,,N,N,N,N,N,N,N,N,N,N,N,2021/09/01,https://inspections.vcha.ca/ChildCare/Table,N,N,N
3648,Licensed Group,Somewhere To "Grow" Montessori Childcare Centre,6197 136Th St,,Surrey,V3X 1H4,49.115157,-122.845596,778-578-0329,,lcduffy@shaw.ca,N,N,N,N,N,N,N,N,N,N,N,N,N,N,N,N,N,,,N,N,N,N,N,N,N,N,N,N,N,2021/08/19,http://www.healthspace.ca/fha/childcare,N,N,N
3649,Licensed Group,Somewhere To Grow Montessori Preschool,13590 62Nd Ave,,Surrey,V3X 1H4,49.115295,-122.845794,778-578-0329,,lcduffy@shaw.ca,N,N,N,N,N,N,N,N,N,N,N,N,N,N,N,N,N,,,N,N,N,N,N,N,N,N,N,Y,N,2021/05/30,http://www.healthspace.ca/fha/childcare,N,N,N
3650,Licensed Group,Happy Campers Osc - Forge,2612 Sooke Rd,,Victoria,V9B 1Y2,48.433797,-123.517109,250-391-0909,,lucy-ann@happycampers.ca,N,N,N,N,N,N,N,N,N,N,N,N,N,N,N,N,N,,,N,N,N,N,N,N,N,N,N,N,N,2021/09/16,http://www.healthspace.ca/Clients/VIHA/VIHA_Website.nsf/CCFL-Frameset,N,Y,N
3651,Licensed Family,Safe-T Family Child Care,2048 1St Ave E,,Vancouver,V5N 1B5,49.269288,-123.062652,604-708-1501,,sakib604@hotmail.com,N,N,N,N,N,N,N,N,N,N,N,N,N,N,N,N,N,,,N,N,N,N,N,N,N,Y,N,N,N,2021/09/12,https://inspections.vcha.ca/ChildCare/Table,N,Y,N
3652,Licensed Group,Wind And Tide Preschool - Prospect,15138 Prospect Ave,,White Rock,V5B 2B9,49.024516,-122.802803,604-575-0549,,admin@windandtide.com,N,N,N,N,N,N,N,N,N,N,N,N,N,N,N,N,N,,,N,N,N,N,N,N,N,N,N,Y,N,2021/09/17,http://www.healthspace.ca/fha/childcare,N,N,N
3653,Licensed Group,Wind And Tide Preschool - Cloverdale United,17575 58A Ave,,Surrey,V3S 1N1,49.109185,-122.736159,604-575-0549,,admin@windandtide.com,N,N,N,N,N,N,N,N,N,N,N,N,N,N,N,N,N,,,N,N,N,N,N,N,N,N,N,N,N,2021/09/17,http://www.healthspace.ca/fha/childcare,N,N,N
3654,Licensed Group,YMCA Westwood School Age Child Care,2633 Vanier Drive,,Prince George,V2N 1V1,53.8952,-122.784956,250-562-9341,,corrine.hemeryck@nbcy.org,N,N,N,N,N,N,N,N,N,N,N,N,N,N,N,N,N,,,N,N,N,N,N,N,N,N,N,N,N,2021/07/11,http://www.healthspace.ca/Clients/NHA/NHA_Website.nsf/CCFL-Frameset,N,Y,N
3655,Licensed Group,Little Treasures Daycare Inc,450 Blue Mountain St,,Coquitlam,V3K 4K5,49.248505,-122.870571,604-931-5593,,info@littletreasuresdaycare.ca,N,N,N,N,N,N,N,N,N,N,N,N,N,N,N,N,N,,,N,N,N,N,N,N,N,N,Y,N,N,2021/09/23,http://www.healthspace.ca/fha/childcare,N,Y,N
3656,Licensed Group,Cameron Children's Centre,9838 Cameron St,,Burnaby,V3J 0B4,49.253094,-122.894199,604-526-2522,,felicia.costea@purposesociety.org,N,N,N,N,N,N,N,N,N,N,N,N,N,N,N,N,N,,,N,N,N,N,N,N,N,N,Y,N,N,2021/09/14,http://www.healthspace.ca/fha/childcare,N,Y,N
3657,Licensed Group,Garderie Tartine Et Chocolat,7051 Killarney St,,Vancouver,V5S 2Y5,49.219264,-123.046392,778-955-6440,,tartine.chocolat.bc@gmail.com,N,N,N,N,N,N,N,N,N,N,N,N,N,N,N,N,N,,,N,N,N,N,N,N,N,N,N,N,N,2021/09/17,https://inspections.vcha.ca/ChildCare/Table,N,Y,N
3658,Licensed Family,Happy Days Family Daycare,5724 Janis St,,Chilliwack,V2R 3H6,49.10647,-121.981395,604-824-5992,,janice6971@gmail.com,N,N,N,N,N,N,N,N,N,N,N,N,N,N,N,N,N,,,N,N,N,N,N,N,N,N,N,N,N,2021/09/21,http://www.healthspace.ca/fha/childcare,N,Y,N
3659,Licensed Group,Discovery Childcare Centre,49 7411 12 Ave,,Burnaby,V3N 2K2,49.215768,-122.938322,778-397-2892,,discoverychildcare2009@yahoo.ca,N,N,N,N,N,N,N,N,N,N,N,N,N,N,N,N,N,,,N,N,N,N,N,N,N,N,Y,N,N,2021/08/31,http://www.healthspace.ca/fha/childcare,N,Y,N
3660,Licensed Group,Tumble Kids Preschool,7888 200 St,,Langley,V2Y 3J4,49.145582,-122.667135,604-455-8908,,info@langleygymnastics.ca,N,N,N,N,N,N,N,N,N,N,N,N,N,N,N,N,N,,,N,N,N,N,N,N,N,N,N,N,N,2021/09/07,http://www.healthspace.ca/fha/childcare,N,N,N
3661,Licensed Family,Maclure Place Child Care Centre,30887 Maclure Rd,,Abbotsford,V2T 5P6,49.05543,-122.368427,604-765-4415,,campbell.car.58@gmail.com,N,N,N,N,N,N,N,N,N,N,N,N,N,N,N,N,N,,,N,N,N,N,N,N,N,N,N,N,N,2021/09/17,http://www.healthspace.ca/fha/childcare,N,Y,N
3662,Licensed Family,Belen Family Child Care,Adanac Housing Development,19 - 3550 Adanac St,Vancouver,V5K 4Y6,49.277383,-123.026938,604-451-8772,,corinaroquue@gmail.com,N,N,N,N,N,N,N,N,N,N,N,N,N,N,N,N,N,,,N,N,N,N,N,N,N,N,N,N,N,2021/09/19,https://inspections.vcha.ca/ChildCare/Table,N,Y,N
3663,Licensed Group,Delta Montessori Preschool,9336 119A St,,Delta,V4C 6P2,49.172905,-122.892138,604-583-7488,,deltamontessori@telus.net,N,N,N,N,N,N,N,N,N,N,N,N,N,N,N,N,N,,,N,N,N,N,N,N,N,N,N,N,N,2021/06/23,http://www.healthspace.ca/fha/childcare,N,N,N
3664,Licensed Group,Norgate Kids' Club,1295 Sowden St,,North Vancouver,V7P 1L9,49.320467,-123.109801,604-987-8138,,lhubbard@nsnh.bc.ca,N,N,N,N,N,N,N,N,N,N,N,N,N,N,N,N,N,,,N,N,N,N,N,N,N,N,Y,N,Y,2021/07/13,http://www.vch.ca/your_environment/facility_licensing/residential_care/inspection_reports/,N,Y,N
3665,Licensed Group,Sanctuary Pre-Teen Drop In Centre,1705 Bay Ave,,Trail,V1R 4B5,49.09289,-117.704283,250-368-6142,,sanctuary@uniserve.com,N,N,N,N,N,N,N,N,N,N,N,N,N,N,N,N,N,,,N,N,N,N,N,N,N,N,N,N,Y,2021/09/10,https://www.interiorhealth.ca/HedgehogPortal/facility/Table,N,N,N
3666,Licensed Group,Little Chicks Childcare Centre Inc.,9105 Peach Orchard Rd,,Summerland,V0H 1Z0,49.605194,-119.67554,250-494-1200,,jenchick@hotmail.com,N,N,N,N,N,N,N,N,N,N,N,N,N,N,N,N,N,,,N,N,N,N,N,N,N,N,Y,Y,Y,2021/09/02,https://www.interiorhealth.ca/HedgehogPortal/facility/Table,N,Y,N
3667,Licensed Family,Grace Lily Group Child Care,10091 Gower St,,Richmond,V7A 4G2,49.139707,-123.118269,604-295-1593,,lilyxu50@yahoo.com,,,,,,,,,,,,,,,,,,,,,,,,,,,,,,,,,Y,Y,N
3668,Licensed Family,Bamby Family Child Care,216-1267 Marinaside Cres,,Vancouver,V6L 2X5,49.272868,-123.120919,604-408-0622,,meri_fcc@hotmail.com,N,N,N,N,N,N,N,N,N,N,N,N,N,N,N,N,N,,,N,N,N,N,N,N,N,N,N,N,N,2021/08/30,https://inspections.vcha.ca/ChildCare/Table,N,N,N
3669,Licensed Family,Kids Corner Daycare,8886 118 St,,Delta,V4C 6H7,49.164812,-122.895595,604-518-6450,,ansabajwa@hotmail.com,N,N,N,N,N,N,N,N,N,N,N,N,N,N,N,N,N,,,N,N,N,N,N,N,N,N,N,N,N,2021/09/15,http://www.healthspace.ca/fha/childcare,N,Y,N
3670,Licensed Group,Vernon Christian Preschool,6890 Pleasant Valley Rd,,Vernon,V1B 3R5,50.309043,-119.247584,250-545-7345,,tdriediger@vcs.ca,N,N,N,N,N,N,N,N,N,N,N,N,N,N,N,N,N,,,N,N,N,N,N,N,N,N,N,N,N,2021/06/30,https://www.interiorhealth.ca/HedgehogPortal/facility/Table,N,N,N
3671,Licensed Family,Amy's Family Day Care,6088 Sperling Ave,,Burnaby,V5E 2T9,49.228702,-122.964334,604-522-0748,,hsiaohsiuyueh@hotmail.com.tw,N,N,N,N,N,N,N,N,N,N,N,N,N,N,N,N,N,,,N,N,N,N,N,N,N,N,N,N,N,2021/09/01,http://www.healthspace.ca/fha/childcare,N,Y,N
3672,Licensed Family,La Petite France,3667 William St,,Vancouver,V5K 5G9,49.274344,-123.024952,604-299-0303,,najatsinc@hotmail.com,N,N,N,N,N,N,N,N,N,N,N,N,N,N,N,N,N,,,N,N,N,N,N,N,N,N,N,N,N,2021/09/15,https://inspections.vcha.ca/ChildCare/Table,N,N,N
3673,Licensed Family,Gramma Momma & Me,1018 Coronation Ave,,Kelowna,V1Y 7A7,49.892874,-119.47934,250-870-7935,,ssmcq5p@hotmail.com,N,N,N,N,N,N,N,N,N,N,N,N,N,N,N,N,N,,,N,N,N,N,N,N,N,N,N,N,N,2021/09/15,https://www.interiorhealth.ca/HedgehogPortal/facility/Table,N,Y,N
3674,Licensed Family,Lily Care Family Day Care,2546 Quay Pl,,Coquitlam,V3H 3G3,49.273708,-122.821461,778-355-8620,,lilyschool550@gmail.com,N,N,N,N,N,N,N,N,N,N,N,N,N,N,N,N,N,,,N,N,N,N,N,N,N,N,Y,N,N,2021/09/02,http://www.healthspace.ca/fha/childcare,N,Y,N
3675,Licensed Group,Sunshine Corner Daycare,215 18Th Ave E,,Vancouver,V5V 1E5,49.255036,-123.100382,604-876-9722,,sunshinecornerdaycare@gmail.com,N,N,N,N,N,N,N,N,N,N,N,N,N,N,N,N,N,,,N,N,N,N,N,N,N,N,N,N,N,2021/09/10,https://inspections.vcha.ca/ChildCare/Table,N,Y,N
3676,Licensed Group,Happy Campers Osc - Dunford,948 Dunford Ave,,Victoria,V9B 2S3,48.445747,-123.512154,250-391-0909,,lucy-ann@happycampers.ca,N,N,N,N,N,N,N,N,N,N,N,N,N,N,N,N,N,,,N,N,N,N,N,N,N,N,N,N,N,2021/09/16,http://www.healthspace.ca/Clients/VIHA/VIHA_Website.nsf/CCFL-Frameset,N,Y,N
3677,Licensed Group,International Village Children's Centre,680 Abbot,,Vancouver,V6B 0E1,49.278792,-123.106789,604-718-6555,,info@vsocc.org,N,N,N,N,N,N,N,N,N,N,N,N,N,N,N,N,N,,,N,N,N,N,N,N,N,N,N,N,N,2021/09/07,https://inspections.vcha.ca/ChildCare/Table,N,Y,N
3678,Licensed Group,International Village Children's Centre - 3-5 Program,680 Abbott,,Vancouver,V6B 0E1,49.278792,-123.106789,604-718-6555,,info@vsocc.org,N,N,N,N,N,N,N,N,N,N,N,N,N,N,N,N,N,,,N,N,N,N,N,N,N,N,N,N,N,2021/09/07,https://inspections.vcha.ca/ChildCare/Table,N,Y,N
3679,Licensed Group,Shining Star Child Care Centre,4409 Gertrude Street,,Port Alberni,V9Y 6J7,49.256492,-124.808627,250-724-9699,,shiningstar@shaw.ca,N,N,N,N,N,N,N,Y,Y,Y,Y,N,N,N,N,N,N,Not offered,Include in fee,Y,Y,N,N,Y,Y,Y,N,Y,Y,Y,2021/09/02,http://www.healthspace.ca/Clients/VIHA/VIHA_Website.nsf/CCFL-Frameset,N,Y,N
3680,Licensed Family,Tiny Treasures Family Childcare,5241 Miller Rd,,Duncan,V9L 6R6,48.761697,-123.702138,250-746-0612,,r.and.l@shaw.ca,N,N,N,N,N,N,N,N,N,N,N,N,N,N,N,N,N,,,N,N,N,N,N,N,N,N,N,N,N,2021/09/15,http://www.healthspace.ca/Clients/VIHA/VIHA_Website.nsf/CCFL-Frameset,N,N,N
3681,Licensed Group,Cherub Montessori Preschool & Kinder Academy,11960 Montego St,,Richmond,V6X 1H4,49.180277,-123.09234,604-277-1219,,cherubpreschool@gmail.com,N,N,N,N,N,N,N,N,N,N,N,N,N,N,N,N,N,,,N,N,N,N,N,N,N,N,Y,N,N,2021/09/24,https://inspections.vcha.ca/ChildCare/Table,N,Y,N
3682,Licensed Group,3 Corners Child Care Centre I,1 Kingsway,,Vancouver,V5T 3H7,49.264315,-123.100221,604-257-3083,,vera.lara@vancouver.ca,N,N,N,N,N,N,N,N,N,N,N,N,N,N,N,N,N,,,N,N,N,N,N,N,N,N,N,N,N,2021/09/16,https://inspections.vcha.ca/ChildCare/Table,N,Y,N
3683,Licensed Group,3 Corners Child Care Centre Ii,1 Kingsway,,Vancouver,V5T 3H7,49.264315,-123.100221,604-257-3083,,vera.lara@vancouver.ca,N,N,N,N,N,N,N,N,N,N,N,N,N,N,N,N,N,,,N,N,N,N,N,N,N,N,N,N,N,2021/09/16,https://inspections.vcha.ca/ChildCare/Table,N,Y,N
3684,Licensed Group,Garibaldi Highlands Out Of School Care,2590 Portree Way,,Brackendale,V0N 1H0,49.74152,-123.112613,604-892-5796,,suzie.soman@sscs.ca,N,N,N,N,N,N,N,N,N,N,N,N,N,N,N,N,N,,,N,N,N,N,N,N,N,N,Y,N,Y,2021/07/08,https://inspections.vcha.ca/ChildCare/Table,N,Y,N
3685,Licensed Group,Almosthome Luxton,1040 Marwood Ave,,Victoria,V9C 3C4,48.429899,-123.53253,250-590-7666,,almosthomechildcare@shaw.ca,N,N,N,N,N,N,N,N,N,N,N,N,N,N,N,N,N,,,N,N,N,N,N,N,N,N,Y,N,N,2021/09/07,http://www.healthspace.ca/Clients/VIHA/VIHA_Website.nsf/CCFL-Frameset,N,Y,N
3686,Licensed Group,Mum's Montessori Child Care Centre,530 East 12Th Street,,North Vancouver,V7L 2K4,49.31909,-123.058645,604-986-1016,,minaali@shaw.ca,N,N,N,N,N,N,N,N,N,N,N,N,N,N,N,N,N,,,N,N,N,N,N,N,N,N,Y,N,N,2021/09/07,https://inspections.vcha.ca/ChildCare/Table,N,Y,N
3687,Licensed Group,Don Christian Recreation Centre,6220 184Th St,,Surrey,V3S 8E6,49.115366,-122.712288,604-598-7967,,rlowens@surrey.ca,N,N,N,N,N,N,N,N,N,N,N,N,N,N,N,N,N,,,N,N,N,N,N,N,N,N,N,N,N,2021/09/27,http://www.healthspace.ca/fha/childcare,N,Y,N
3688,Licensed Group,Teddy Bear Daycare,4335 Blackcomb Way,,Whistler,V0N 1B4,50.117763,-122.954249,604-938-7365,,sharrington@vailresorts.com,Y,N,N,N,N,N,N,Y,N,N,N,N,N,N,N,N,N,Not offered,Not offered,N,N,N,N,Y,Y,Y,N,Y,N,N,2021/09/08,https://inspections.vcha.ca/ChildCare/Table,N,Y,N
3689,Licensed Group,Just 4 Kidz,3965 Myers Frontage Road,,Tappen,V0E 2X3,50.811095,-119.328582,250-517-0162,,just4kidz_nadeen@hotmail.com,N,N,N,N,N,N,N,N,N,N,N,N,N,N,N,N,N,,,N,N,N,N,N,N,N,N,N,N,N,2021/09/15,https://www.interiorhealth.ca/HedgehogPortal/facility/Table,N,Y,N
3690,Licensed Group,Abc Montessori Pre-School,4866 Fraser St,,Vancouver,V5V 4H5,49.240646,-123.089964,604-715-3962,,,N,N,N,N,N,N,N,N,N,N,N,N,N,N,N,N,N,,,N,N,N,N,N,N,N,N,N,Y,N,2021/09/13,https://inspections.vcha.ca/ChildCare/Table,N,N,N
3691,Licensed Group,Jubilee Montessori House,14924 88A Ave,,Surrey,V3R 6Y5,49.163578,-122.809007,778-394-6540,,jubileemontessori@outlook.com,N,N,N,N,N,N,N,N,N,N,N,N,N,N,N,N,N,,,N,N,N,N,N,N,N,Y,Y,N,N,2021/07/24,http://www.healthspace.ca/fha/childcare,N,Y,N
3692,Licensed Family,Greenways Licensed Child Care Center,570 21St St W,,North Vancouver,V7M 1Z7,49.32874,-123.08843,604-971-3638,,sa.sahba@yahoo.ca,N,N,N,N,N,N,N,N,N,N,N,N,N,N,N,N,N,,,N,N,N,N,N,N,N,N,Y,N,N,2021/09/21,https://inspections.vcha.ca/ChildCare/Table,N,Y,N
3693,Licensed Family,Future Step Child Care,8631 St. Albans Rd,,Richmond,V6Y 2L2,49.15191,-123.131317,604-780-7528,,hari_daizy@hotmail.com,N,N,N,N,N,N,N,N,N,N,N,N,N,N,N,N,N,,,N,N,N,N,N,N,N,N,N,N,N,2021/09/10,https://inspections.vcha.ca/ChildCare/Table,N,Y,N
3694,Licensed Group,Peaceful Bilingual Early Learning Centre,7360 Bridge St,,Richmond,V6Y 2S7,49.159513,-123.116646,604-998-7827,,pbechildcare@gmail.com,N,N,N,N,N,N,Y,Y,N,N,N,N,N,Y,N,N,N,Not offered,Not offered,N,N,N,N,N,N,N,Y,Y,N,N,2021/09/01,https://inspections.vcha.ca/ChildCare/Table,N,Y,N
3695,Licensed Group,Mowachaht/Muchalaht Kaackamin Centre,100 Ouwatin Rd,,Gold River,V0P 1G0,49.779184,-126.051988,250-283-2396,,daycare@yuquot.ca,Y,N,N,N,N,N,Y,Y,Y,N,N,N,N,N,N,N,N,Included in fee,Not offered,N,N,Y,Y,Y,Y,N,Y,Y,N,N,2021/09/16,http://www.healthspace.ca/Clients/VIHA/VIHA_Website.nsf/CCFL-Frameset,N,Y,N
3696,Licensed Group,Creative Beginnings Child Care Center,6878 142Nd St,,Surrey,V3W 5M9,49.127664,-122.828576,778-565-1291,,sampremia@yahoo.com,Y,N,N,N,N,N,Y,Y,N,Y,N,N,N,N,N,N,N,Not offered,Extra fee,Y,N,N,N,Y,Y,Y,N,Y,N,Y,2021/08/02,http://www.healthspace.ca/fha/childcare,N,Y,N
3697,Licensed Family,Cloverdale Montessori School,18389 68 Ave,,Surrey,V3S 9C6,49.126047,-122.713073,604-575-8737,,info@cloverdalemontessori.com,N,N,N,N,N,N,N,N,N,N,N,N,N,N,N,N,N,,,N,N,N,N,N,N,N,N,Y,N,N,2021/07/19,,N,Y,N
3698,Licensed Family,Flowers Childcare,1763 Pitt River Rd,,Port Coquitlam,V3C 1P6,49.248573,-122.771505,778-883-7002,,shiva_mosavi@ymail.com,N,N,N,N,N,N,N,N,N,N,N,N,N,N,N,N,N,,,N,N,N,N,N,N,N,N,N,N,N,2021/09/20,http://www.healthspace.ca/fha/childcare,N,N,N
3699,Licensed Group,Gordon House Childcare,Gordon House Childcare,2104 Gordon Avenue,West Vancouver,V7V 4B9,49.332254,-123.170768,604-786-2577,,bellabeechildcare@gmail.com,N,N,N,N,N,N,N,N,N,N,N,N,N,N,N,N,N,,,N,N,N,N,N,N,N,Y,N,N,N,2021/09/15,https://inspections.vcha.ca/ChildCare/Table,N,Y,N
3700,Licensed Group,Gordon House Childcare,2104 Gordon Ave,,West Vancouver,V7V 4B9,49.332559,-123.1678,604-786-2577,,bellabeechildcare@gmail.com,N,N,N,N,N,N,N,N,N,N,N,N,N,N,N,N,N,,,N,N,N,N,N,N,N,N,Y,N,N,2021/09/15,https://inspections.vcha.ca/ChildCare/Table,N,Y,N
3701,Licensed Group,Suncrest Neighbourhood Care,3883 Rumble St,,Burnaby,V5J 1Z5,49.215363,-123.018002,604-431-0400,,saras@burnabynh.ca,N,N,N,N,N,N,N,N,N,N,N,N,N,N,N,N,N,,,N,N,N,N,N,N,N,N,Y,N,Y,2021/09/20,http://www.healthspace.ca/fha/childcare,N,Y,N
3702,Licensed Group,Academics Prekindergarten,15300 Croydon Dr,,Surrey,V3S 0Z5,49.05993,-122.798034,778-294-2646,,whiterock@academicsprek.com,N,N,N,N,N,N,N,N,N,N,N,N,N,N,N,N,N,,,N,N,N,N,N,N,N,Y,Y,N,N,2021/09/24,http://www.healthspace.ca/fha/childcare,N,Y,N
3703,Licensed Group,Duncan Christian School Early Learning Program,495 Beech Ave,,Duncan,V9L 3J8,48.781169,-123.689682,250-746-3654,,dbrandsma@duncanchristian.com,Y,N,N,N,N,N,N,Y,N,N,N,N,N,N,N,N,N,Not offered,Not offered,N,N,N,N,Y,Y,N,N,Y,N,N,2021/09/10,http://www.healthspace.ca/Clients/VIHA/VIHA_Website.nsf/CCFL-Frameset,N,Y,N
3704,Licensed Group,Tiny Wings Children's Centre,13047 24 Ave,,Surrey,V4A 2G2,49.045931,-122.860593,604-531-4718,,ellenjuan60818@gmail.com,N,N,N,N,N,N,N,N,N,N,N,N,N,N,N,N,N,,,N,N,N,N,N,N,N,N,N,N,N,2021/09/15,http://www.healthspace.ca/fha/childcare,N,Y,N
3705,Licensed Group,Westerman Preschool,7626 122Nd St,,Surrey,V3W 1H4,49.141658,-122.884378,604-598-7967,,rlowens@surrey.ca,N,N,N,N,N,N,N,N,N,N,N,N,N,N,N,N,N,,,N,N,N,N,N,N,N,N,N,Y,N,2021/06/15,http://www.healthspace.ca/fha/childcare,N,N,N
3706,Licensed Group,Bright Stars Childcare,16390 82 Ave,,Surrey,V4N 0N8,49.151707,-122.767991,604-710-9437,,brightstarschildcarefacility@gmail.com,N,N,N,N,N,N,N,N,N,N,N,N,N,N,N,N,N,,,N,N,N,N,N,N,N,N,N,N,N,2021/09/16,http://www.healthspace.ca/fha/childcare,N,Y,N
3707,Licensed Group,Canyon Springs Montessori School & Childcare Centre,2910 Walton Ave,,Coquitlam,V3B 2W3,49.289928,-122.800965,604-945-0566,,admin@canyonspringsmontessori.com,N,N,N,N,N,N,N,N,N,N,N,N,N,N,N,N,N,,,N,N,N,N,N,N,N,N,Y,N,N,2021/09/17,http://www.healthspace.ca/fha/childcare,N,Y,N
3708,Licensed Family,Cuddle Bear Family Daycare,1055 Oxford St,,Kamloops,V2B 5L4,50.706935,-120.394039,250-554-1974,,christal1976@yahoo.ca,N,N,N,N,N,N,N,N,N,N,N,N,N,N,N,N,N,,,N,N,N,N,N,N,N,N,Y,N,Y,2021/09/15,https://www.interiorhealth.ca/HedgehogPortal/facility/Table,N,Y,N
3709,Licensed Family,A & C Family Daycare,5382 Irving St,,Burnaby,V5H 1T9,49.225897,-122.986441,604-438-0537,,yangqiuhong_84@hotmail.com,N,N,N,N,N,N,N,N,N,N,N,N,N,N,N,N,N,,,N,N,N,N,N,N,N,N,N,N,N,2021/09/16,http://www.healthspace.ca/fha/childcare,N,Y,N
3710,Licensed Family,Smart Baby Family Child Care,22140 McLean Ave,,Richmond,V6V 2P3,49.173701,-122.976957,778-888-4862,,huma_naz1999@hotmail.com,N,N,N,N,N,N,N,N,N,N,N,N,N,N,N,N,N,,,N,N,N,N,N,N,N,Y,Y,N,Y,2021/09/20,https://inspections.vcha.ca/ChildCare/Table,N,Y,N
3711,Licensed Group,YMCA - Black Mountain,1650 Gallagher Road,,Kelowna,V1X 2M9,49.867176,-119.349251,250-764-9621,,dmiranda@ymcaokanagan.ca,N,N,N,N,N,N,N,N,N,N,N,N,N,N,N,N,N,,,N,N,N,N,N,N,N,N,N,N,N,2021/07/06,https://www.interiorhealth.ca/HedgehogPortal/facility/Table,N,Y,N
3712,Licensed Group,Barnhartvale Neighbourhood Boys & Girls Club,5990 Todd Road,,Kamloops,V2C 5B7,50.649149,-120.165873,250-554-5437,,programs@bgckamloops.com,N,N,N,N,N,N,N,N,N,N,N,N,N,N,N,N,N,,,N,N,N,N,N,N,N,N,N,N,N,2021/07/05,,N,N,N
3713,Licensed Family,Abba Family Child Care,1769 61St Ave E,,Vancouver,V5P 2J7,49.214805,-123.071092,604-723-3976,,mingyungchen@hotmail.com,Y,N,N,N,N,N,Y,Y,N,Y,Y,Y,N,Y,N,N,Y,Not offered,Not offered,N,N,N,N,N,N,N,N,Y,N,N,2021/09/21,https://inspections.vcha.ca/ChildCare/Table,N,Y,N
3714,Licensed Family,Gentle Rain Family Child Care,3618 Forest Ave,,Prince George,V2N 3Z5,53.895907,-122.78967,250-561-7015,,vanessasmith.gentlerain@gmail.com,N,N,N,N,N,N,N,N,N,N,N,N,N,N,N,N,N,,,N,N,N,N,N,N,N,N,Y,N,N,2021/09/16,http://www.healthspace.ca/Clients/NHA/NHA_Website.nsf/CCFL-Frameset,N,Y,N
3715,Licensed Group,Guildford Childcare Centre,10553 148Th St,,Surrey,V3R 3X7,49.194232,-122.812716,778-386-3501,,jasdipsadhra@yahoo.ca,N,N,N,N,N,N,N,N,N,N,N,N,N,N,N,N,N,,,N,N,N,N,N,N,N,Y,Y,Y,Y,2021/09/13,http://www.healthspace.ca/fha/childcare,N,Y,N
3716,Licensed Group,Little Blue Early Learning Centre,324 Fulford Ganges Rd,,Salt Spring Island,V8K 2K6,48.845066,-123.499199,250-221-2583,,princeryan@shaw.ca,N,N,N,N,N,N,N,N,N,N,N,N,N,N,N,N,N,,,N,N,N,N,N,N,N,N,N,N,N,2021/09/16,http://www.healthspace.ca/Clients/VIHA/VIHA_Website.nsf/CCFL-Frameset,N,Y,N
3717,Licensed Group,Preschool Playhouse,2451 Windsor Rd,,Victoria,V8S 5H3,48.422695,-123.306163,250-370-7125,,emclean@oakbay.ca,N,N,N,N,N,N,N,N,N,N,N,N,N,N,N,N,N,,,N,N,N,N,N,N,N,N,N,N,N,2021/07/09,http://www.healthspace.ca/Clients/VIHA/VIHA_Website.nsf/CCFL-Frameset,N,N,N
3718,Licensed Group,Deaf Children's Society Of B.C.,207 4446 Watling St,,Burnaby,V5J 5H3,49.216172,-123.003405,604-525-6056,,kjokan@deafchildren.bc.ca,N,N,N,N,N,N,N,N,N,N,N,N,N,N,N,N,N,,,N,N,N,N,N,N,N,N,N,N,N,2021/07/29,http://www.healthspace.ca/fha/childcare,N,Y,N
3719,Licensed Group,Hellokids Childcare Centre,1020 Ridgeway Ave,,Coquitlam,V3J 1S5,49.249643,-122.864713,604-261-9713,,ssadatmo@gmail.com,N,N,N,N,N,N,N,N,N,N,N,N,N,N,N,N,N,,,N,N,N,N,N,N,N,N,N,N,N,2021/09/21,http://www.healthspace.ca/fha/childcare,N,Y,N
3720,Licensed Group,Core Education & Fine Arts (3-5 Gdc),2946 Commercial Dr,,Vancouver,V5N 4C9,49.258109,-123.069456,604-879-2332,,accounts@cefa.ca,N,N,N,N,N,N,N,N,N,N,N,N,N,N,N,N,N,,,N,N,N,N,N,N,N,Y,Y,N,N,2021/07/13,http://www.vch.ca/your_environment/facility_licensing/residential_care/inspection_reports/,N,N,N
3721,Licensed Group,Circle Of Friends,140 - 8279 Saba Rd,,Richmond,V6Y 4B6,49.169254,-123.132827,604-233-8910,,citycentre@richmond.ca,N,N,N,N,N,N,N,N,N,N,N,N,N,N,N,N,N,,,N,N,N,N,N,N,N,N,N,Y,N,2021/09/23,https://inspections.vcha.ca/ChildCare/Table,N,N,N
3722,Licensed Family,Little Stars Daycare,6026 Brantford Ave,,Burnaby,V5E 2R7,49.229155,-122.967365,604-430-9734,,taherehkhoddami@hotmail.com,N,N,N,N,N,N,N,N,N,N,N,N,N,N,N,N,N,,,N,N,N,N,N,N,N,N,Y,N,N,2021/09/24,http://www.healthspace.ca/fha/childcare,N,Y,N
3723,Licensed Group,Crayon Box Learning Center,160 - 10811 No. 4 Rd,,Richmond,V7A 2Z5,49.133818,-123.115225,604-275-2332,,richmond@cefa.ca,N,N,N,N,N,N,N,N,N,N,N,N,N,N,N,N,N,,,N,N,N,N,N,N,N,Y,Y,N,N,2021/09/20,https://inspections.vcha.ca/ChildCare/Table,N,Y,N
3724,Licensed Group,Crayon Box Learning Center Inc.,160 - 10811 No. 4 Rd,,Richmond,V7A 2Z5,49.133818,-123.115225,604-275-2332,,richmond@cefa.ca,N,N,N,N,N,N,N,N,N,N,N,N,N,N,N,N,N,,,N,N,N,N,N,N,N,Y,Y,N,N,2021/09/20,https://inspections.vcha.ca/ChildCare/Table,N,Y,N
3725,Licensed Family,Little Jems,3875 203B St,,Langley,V3A 4X1,49.072221,-122.660028,604-825-5465,http://littlejemsplaycenter.weebly.com/,kakn5465@telus.net,Y,N,N,N,N,N,Y,Y,N,N,N,N,N,N,N,N,N,Not offered,Not offered,N,N,N,N,N,N,N,Y,Y,N,N,2021/09/02,http://www.healthspace.ca/fha/childcare,N,Y,N
3726,Licensed Family,Little Stars Daycare Centre,6150 150B St,,Surrey,V3S 7W9,49.114361,-122.804143,604-592-2526,,amalhi1953@gmail.com,N,N,N,N,N,N,N,N,N,N,N,N,N,N,N,N,N,,,N,N,N,N,N,N,N,Y,N,N,N,2021/08/30,http://www.healthspace.ca/fha/childcare,N,Y,N
3727,Licensed Group,Waverley School-Age Care,6111 Elliott,,Vancouver,V5S 2M1,49.227705,-123.055493,604-875-9111,,central@anhbc.org,N,N,N,N,N,N,N,N,N,N,N,N,N,N,N,N,N,,,N,N,N,N,N,N,N,N,Y,N,Y,2021/05/31,https://inspections.vcha.ca/ChildCare/Table,N,Y,N
3728,Licensed Group,Wee Saints School Age,17475 59Th Ave,,Surrey,V3S 1P3,49.109766,-122.739208,604-574-4363,,pbparish@telus.net,N,N,N,N,N,N,N,N,N,N,N,N,N,N,N,N,N,Not offered,Not offered,N,N,N,N,N,N,N,N,N,N,N,2021/07/06,http://www.healthspace.ca/fha/childcare,N,N,N
3729,Licensed Family,Cherished Treasures,143 Fern Cres,,Prince George,V2N 1J3,53.891176,-122.781163,250-649-8762,,cherished.treasures.daycare@gmail.com,N,N,N,N,N,N,N,N,N,N,N,N,N,N,N,N,N,,,N,N,N,N,N,N,N,N,N,N,N,2021/09/15,http://www.healthspace.ca/Clients/NHA/NHA_Website.nsf,N,Y,N
3730,Licensed Group,Six Mile Daycare,2074 Blackwater Rd,,Quesnel,V2J 7B3,53.000758,-122.530663,250-249-5104,,shellyubell@gmail.com,N,N,N,N,N,N,N,N,N,N,N,N,N,N,N,N,N,,,N,N,N,N,N,N,N,Y,Y,N,Y,2021/08/31,http://www.healthspace.ca/Clients/NHA/NHA_Website.nsf/CCFL-Frameset,N,Y,N
3731,Licensed Group,The Good Shepherd Daycare,1320 Johnson St,,Coquitlam,V3B 4T5,49.292291,-122.801427,604-537-8100,,goodshepherddaycare@gmail.com,N,N,N,N,N,N,N,N,N,N,N,N,N,N,N,N,N,,,N,N,N,N,N,N,N,N,Y,N,N,2021/09/07,http://www.healthspace.ca/fha/childcare,N,Y,N
3732,Licensed Group,The Beautiful Montessori Daycare,104 - 3242 Westwood St,,Port Coquitlam,V3C 3L8,49.270639,-122.790131,604-464-2202,,bluebird5589@hotmail.com,N,N,N,N,N,N,N,N,N,N,N,N,N,N,N,N,N,,,N,N,N,N,N,N,N,Y,Y,N,N,2021/09/20,http://www.healthspace.ca/fha/childcare,N,Y,N
3733,Licensed Family,Agape Licensed Day Care,7348 16Th Ave,,Burnaby,V3N 1N8,49.216917,-122.946269,604-516-8388,,elainetrad2004@yahoo.ca,N,N,N,N,N,N,N,N,N,N,N,N,N,N,N,N,N,,,N,N,N,N,N,N,N,N,N,N,N,2021/09/15,http://www.healthspace.ca/fha/childcare,N,Y,N
3734,Licensed Family,Sunshine Hills Family Daycare,6733 Nicholson Rd,,Delta,V4E 2T2,49.125336,-122.895262,604-908-2549,,steff.schebek@gmail.com,N,N,N,N,N,N,N,N,N,N,N,N,N,N,N,N,N,,,N,N,N,N,N,N,N,N,N,N,N,2021/09/24,http://www.healthspace.ca/fha/childcare,N,Y,N
3735,Licensed Group,Maple Bay's Rising Stars After School Care,1500 Donnay Dr,,Duncan,V9L 5R4,48.798462,-123.639441,250-701-2906,,samanddaveandrews@shaw.ca,N,N,N,N,N,N,N,N,N,N,N,N,N,N,N,N,N,,,N,N,N,N,N,N,N,N,N,N,N,2021/08/31,http://www.healthspace.ca/Clients/VIHA/VIHA_Website.nsf/CCFL-Frameset,N,N,N
3736,Licensed Group,Play And Learn Childcare,365 Cedar St,,100 Mile House,V0K 2E0,51.643113,-121.293856,250-395-3837,,pullymark60@gmail.com,Y,N,N,N,N,N,Y,Y,N,Y,Y,N,N,N,N,N,N,Not offered,Include in fee,N,N,N,N,N,Y,N,N,N,N,N,2021/09/22,https://www.interiorhealth.ca/HedgehogPortal/facility/Table,N,Y,N
3737,Licensed Group,Olive Grove Childcare,510 1070 Lynn Valley Rd,,North Vancouver,V7J 1Z8,49.334065,-123.044782,604-982-5871,,info@olivegrovechildcare.com,N,N,N,N,N,N,N,N,N,N,N,N,N,N,N,N,N,,,N,N,N,N,N,N,N,N,N,N,N,2021/09/15,https://inspections.vcha.ca/ChildCare/Table,N,Y,N
3738,Licensed Group,7Th Avenue Clubhouse,120 7Th Avenue S,,Cranbrook,V1C 2J4,49.509315,-115.771364,250-426-3830,,cranbgc@shawbiz.ca,N,N,N,N,N,N,N,N,N,N,N,N,N,N,N,N,N,,,N,N,N,N,N,N,N,N,N,N,N,2021/09/20,https://www.interiorhealth.ca/HedgehogPortal/facility/Table,N,Y,N
3739,Licensed Family,Brackenwood Children's Centre,2375 Brackenwood Pl,,Nanaimo,V9T 4J2,49.197952,-124.002018,250-713-2500,,h-villy@hotmail.com,N,N,N,N,N,N,N,N,N,N,N,N,N,N,N,N,N,,,N,N,N,N,N,N,N,N,N,N,N,2021/09/15,http://www.healthspace.ca/Clients/VIHA/VIHA_Website.nsf/CCFL-Frameset,N,Y,N
3740,Licensed Group,Little Paws Children's Center,162 Westhills Cres,,Penticton,V2A 6J7,49.503565,-119.561133,250-492-2324,,daycare.manager@pib.ca,N,N,N,N,N,N,Y,Y,N,Y,Y,N,N,N,N,N,Y,Included in fee,Extra fee,N,N,N,Y,N,Y,N,Y,Y,Y,Y,2021/09/17,https://www.interiorhealth.ca/HedgehogPortal/facility/Table,N,Y,N
3741,Licensed Group,Discovery Kids Club,2460 Auto Road Se,,Salmon Arm,V1E 1K5,50.694431,-119.256788,250-832-0779,,teena@discoverykidsclub.com,,,,,,,,,,,,,,,,,,,,,,,,,,,,,,,,,Y,N,N
3742,Licensed Group,Ull'us Child Care Centre,82 A Avenue,,Mount Currie,V0N 2K0,50.317311,-122.722782,604-894-6115,,nadine.pascal@lilwat.ca,N,N,N,N,N,N,N,N,N,N,N,N,N,N,N,N,N,Not offered,Not offered,N,N,N,N,N,N,N,N,Y,N,N,2021/09/07,,N,Y,N
3743,Licensed Group,Spare Time Connection,315 East 23Rd Ave,,Vancouver,V5S 2N1,49.250674,-123.097678,604-325-1010,,astrid@sparetimesociety.org,N,N,N,N,N,N,N,N,N,N,N,N,N,N,N,N,N,Not offered,Not offered,N,N,N,N,N,N,N,N,N,N,N,2021/06/17,,N,Y,N
3744,Licensed Family,Giggles N' Wiggles Daycare,503 Carran Lane,,Victoria,V9C 4L3,48.430679,-123.4964,250-727-0112,,kayvicks@hotmail.com,N,N,N,N,N,N,N,N,N,N,N,N,N,N,N,N,N,,,N,N,N,N,N,N,N,N,N,N,N,2021/07/24,http://www.healthspace.ca/Clients/VIHA/VIHA_Website.nsf/CCFL-Frameset,N,Y,N
3745,Licensed Group,Euphoria Child Care,3292 First St,,Cumberland,V0R 1S0,49.620249,-125.03139,250-702-2979,,michellelyne411@hotmail.com,N,N,N,N,N,N,N,N,N,N,N,N,N,N,N,N,N,,,N,N,N,N,N,N,N,N,Y,N,Y,2021/09/14,http://www.healthspace.ca/Clients/VIHA/VIHA_Website.nsf/CCFL-Frameset,N,Y,N
3746,Licensed Group,Happy Valley Montessori Children Centre Inc.,6091 Udy Rd,,Richmond,V7C 2X8,49.160474,-123.158131,604-897-3088,,joyceli_88@yahoo.com,N,N,N,N,N,N,N,N,N,N,N,N,N,N,N,N,N,,,N,N,N,N,N,N,N,N,N,N,N,2021/09/15,https://inspections.vcha.ca/ChildCare/Table,N,Y,N
3747,Licensed Group,YMCA Coast Capital Savings Early Childhood Centre,955 Burrard,,Vancouver,V6Z 1Y2,49.282205,-123.125987,604-673-6157,,childcare@gv.ymca.ca,N,N,N,N,N,N,N,N,N,N,N,N,N,N,N,N,N,,,N,N,N,N,N,N,N,Y,N,N,N,2021/09/16,http://www.vch.ca/your_environment/facility_licensing/residential_care/inspection_reports/,N,Y,N
3748,Licensed Group,YMCA Coast Captial Savings Early Childhood Centre,955 Burrard,,Vancouver,V6Z 1Y2,49.282205,-123.125987,604-673-6157,,childcare@gv.ymca.ca,N,N,N,N,N,N,N,N,N,N,N,N,N,N,N,N,N,,,N,N,N,N,N,N,N,N,Y,N,N,2021/09/16,http://www.vch.ca/your_environment/facility_licensing/residential_care/inspection_reports/,N,Y,N
3749,Licensed Group,Starlight Learning Centre (Fraser Hwy),27336 Fraser Hwy,,Aldergrove,V4W 3N5,49.057548,-122.466485,604-607-0463,,starlightlrnctr@hotmail.com,Y,N,N,N,N,N,N,Y,N,Y,Y,N,N,Y,N,N,Y,Not offered,Include in fee,Y,N,N,N,Y,Y,Y,N,N,N,N,2021/09/15,http://www.healthspace.ca/fha/childcare,N,Y,N
3750,Licensed Family,Little Niblets Family Daycare,853 Faulkner Cres,,Prince George,V2M 5E1,53.915506,-122.809214,250-562-4419,,littlenibletsfamilydaycare@yahoo.ca,N,N,N,N,N,N,N,N,N,N,N,N,N,N,N,N,N,,,N,N,N,N,N,N,N,N,Y,N,N,2021/09/15,http://www.healthspace.ca/Clients/NHA/NHA_Website.nsf/CCFL-Frameset,N,Y,N
3751,Licensed Family,Kids Clubhouse,2034 Kirkstone Rd,,North Vancouver,V7J 3M2,49.327592,-123.039692,778-340-0081,,kidsclubhouse@shaw.ca,N,N,N,N,N,N,N,N,N,N,N,N,N,N,N,N,N,,,N,N,N,N,N,N,N,N,Y,N,N,2021/09/15,https://inspections.vcha.ca/ChildCare/Table,N,Y,N
3752,Licensed Family,Little Mountain Daycare,10148 Beaver Cres,,Chilliwack,V2P 7X4,49.186093,-121.923077,604-793-9378,,altered24@gmail.com,N,N,N,N,N,N,N,N,N,N,N,N,N,N,N,N,N,,,N,N,N,N,N,N,N,N,N,N,N,2021/09/05,http://www.healthspace.ca/fha/childcare,N,Y,N
3753,Licensed Group,Our House Out Of School Care,123 16Th Ave W,,Vancouver,V5Y 0B3,49.256734,-123.107688,604-257-3083,,vera.lara@vancouver.ca,N,N,N,N,N,N,N,N,N,N,N,N,N,N,N,N,N,,,N,N,N,N,N,N,N,N,N,N,N,2021/09/17,https://inspections.vcha.ca/ChildCare/Table,N,Y,N
3754,Licensed Group,Our House Preschool,123 16Th St W,,Vancouver,V5Y 0B3,49.327254,-123.158932,604-257-3083,,vera.lara@vancouver.ca,N,N,N,N,N,N,N,N,N,N,N,N,N,N,N,N,N,,,N,N,N,N,N,N,N,N,N,Y,N,2021/09/16,https://inspections.vcha.ca/ChildCare/Table,N,N,N
3755,Licensed Family,Little Learners Child Care Centre,8596 167 St,,Surrey,V4N 5A5,49.158989,-122.759146,604-576-5638,,ravinderbholla@gmail.com,N,N,N,N,N,N,N,N,N,N,N,N,N,N,N,N,N,,,N,N,N,N,N,N,N,Y,Y,N,N,2021/08/23,http://www.healthspace.ca/fha/childcare,N,Y,N
3756,Licensed Family,Jia Jia Family Daycare,3014 Delahaye Dr,,Coquitlam,V3B 6V8,49.292246,-122.794028,604-475-2663,,xuyanes09@hotmail.com,N,N,N,N,N,N,N,N,N,N,N,N,N,N,N,N,N,,,N,N,N,N,N,N,N,Y,Y,N,N,2021/08/31,http://www.healthspace.ca/fha/childcare,N,Y,N
3757,Licensed Group,Xa Xe Stelitkel,231 Regina Ave,,Victoria,V8Z 1J6,48.455464,-123.388907,250-384-3211,,margot@vnfc.ca,N,N,N,N,N,N,N,N,N,N,N,N,N,N,N,N,N,,,N,N,N,N,N,N,N,N,N,N,N,2021/09/09,http://www.healthspace.ca/Clients/VIHA/VIHA_Website.nsf/CCFL-Frameset,N,Y,N
3758,Licensed Family,Lil' Monkeys Family Childcare,3842 Hertford St,,Burnaby,V5G 2R4,49.238028,-123.019097,604-451-7571,,tinacaron21@hotmail.com,N,N,N,N,N,N,N,N,N,N,N,N,N,N,N,N,N,,,N,N,N,N,N,N,N,N,N,N,N,2021/09/15,http://www.healthspace.ca/fha/childcare,N,Y,N
3759,Licensed Group,Ambleside Park Childcare,1093 Par Rd,,West Vancouver,V7V 1A5,49.324435,-123.146842,604-786-2577,,bellabeechildcare@gmail.com,N,N,N,N,N,N,N,N,N,N,N,N,N,N,N,N,N,,,N,N,N,N,N,N,N,Y,N,N,N,2021/09/15,http://www.vch.ca/your_environment/facility_licensing/residential_care/inspection_reports/,N,Y,Y
3760,Licensed Group,Ambleside Park Childcare,1093 Par Rd,,West Vancouver,V7V 1A5,49.324435,-123.146842,604-786-2577,,bellabeechildcare@gmail.com,N,N,N,N,N,N,N,N,N,N,N,N,N,N,N,N,N,,,N,N,N,N,N,N,N,N,Y,N,N,2021/09/15,http://www.vch.ca/your_environment/facility_licensing/residential_care/inspection_reports/,N,Y,Y
3761,Licensed Group,Kamloops Kidz Early Learning Center,1764 Valleyview Dr,,Kamloops,V2C 4B8,50.675468,-120.287924,250-319-9044,,sandra@kamloopskidz.com,N,N,N,N,N,N,N,N,N,N,N,N,N,N,N,N,N,,,N,N,N,N,N,N,N,Y,Y,Y,Y,2021/09/09,https://www.interiorhealth.ca/HedgehogPortal/facility/Table,N,Y,N
3762,Licensed Group,Qt Daycare #1,2518C Clearbrook Rd,,Abbotsford,V2T 2Y2,49.048014,-122.337134,604-556-6458,,qtdaycareabbotsford@yahoo.ca,N,N,N,N,N,N,N,N,N,N,N,N,N,N,N,N,N,,,N,N,N,N,N,N,N,N,N,N,N,2021/09/19,http://www.healthspace.ca/fha/childcare,N,Y,N
3763,Licensed Group,Peachland Preschool,5486 Clements Cres,,Peachland,V0H 1X5,49.785459,-119.716326,250-762-3914,,dwalker@boysandgirlsclubs.ca,N,N,N,N,N,N,N,N,N,N,N,N,N,N,N,N,N,,,N,N,N,N,N,N,N,N,N,N,N,2021/07/09,http://www.interiorhealth.ca/YourEnvironment/InspectionReports/Pages/default.aspx,N,N,N
3764,Licensed Group,Dinosaur Daycare Ltd.,625 Mountain Hwy,,North Vancouver,V7J 2L5,49.311692,-123.035383,604-988-1541,,dinosaurdaycare@hotmail.com,N,N,N,N,N,N,N,N,N,N,N,N,N,N,N,N,N,,,N,N,N,N,N,N,N,Y,Y,N,N,2021/09/17,https://inspections.vcha.ca/ChildCare/Table,N,Y,Y
3765,Licensed Group,Strawberry Patch Children's Centre - North Otter,5370 248Th St,,Aldergrove,V4W 1A7,49.09979,-122.535446,604-533-4547,,vicars@shaw.ca,N,N,N,N,N,N,N,N,N,N,N,N,N,N,N,N,N,,,N,N,N,N,N,N,N,N,Y,N,Y,2021/09/21,http://www.healthspace.ca/fha/childcare,N,Y,N
3766,Licensed Group,Highroad Children's Centre,8860 Broadway St,,Chilliwack,V2P 5W1,49.16315,-121.934555,604-792-4680,,tsyms@highroadchildrenscentre.com,N,N,N,N,N,N,N,N,N,N,N,N,N,N,N,N,N,,,N,N,N,N,N,N,N,N,N,Y,N,2021/09/15,http://www.healthspace.ca/fha/childcare,N,N,N
3767,Licensed Group,Jenn's Afterschool Care,4574 Raymer Rd,,Kelowna,V1W 1H9,49.817129,-119.479296,250-870-1405,,jennsafterschoolcare@live.ca,N,N,N,N,N,N,N,N,N,N,N,N,N,N,N,N,N,,,N,N,N,N,N,N,N,N,N,N,N,2021/08/12,https://www.interiorhealth.ca/HedgehogPortal/facility/Table,N,N,N
3768,Licensed Family,Amy's Family Child Care,852 50Th Ave E,,Vancouver,V5X 1B5,49.2242,-123.087298,604-781-8029,,raynjonahchan@gmail.com,N,N,N,N,N,N,N,N,N,N,N,N,N,N,N,N,N,,,N,N,N,N,N,N,N,N,Y,N,N,2021/09/02,http://www.vch.ca/your_environment/facility_licensing/residential_care/inspection_reports/,N,Y,N
3769,Licensed Group,Stepping Stones Child Care Centre,6855 Market Street,,Port Hardy,V0N 2P0,50.717157,-127.494364,250-949-3031,,steppingstonesdaycare@hotmail.ca,N,N,N,N,N,N,N,N,N,N,N,N,N,N,N,N,N,,,N,N,N,N,N,N,N,N,N,Y,N,2021/09/14,http://www.healthspace.ca/Clients/VIHA/VIHA_Website.nsf/CCFL-Frameset,N,Y,N
3770,Licensed Group,New Beginnings Daycare Program - Mouat Drive,32355 Mouat Drive,,Abbotsford,V2T 4E9,49.058788,-122.328882,604-850-7303,,maria.cargnelli@archway.ca,Y,N,N,N,N,N,Y,N,N,N,N,N,Y,N,N,N,Y,Included in fee,Not offered,N,N,N,N,Y,Y,Y,Y,N,N,N,2021/09/13,http://www.healthspace.ca/fha/childcare,N,Y,N
3771,Licensed Group,Parasol - Early Years Learning 3,8205 Dallas Dr,,Kamloops,V2C 6X2,50.65619,-120.106174,236-996-4545,,mansibalyan.ca@gmail.com,N,N,N,N,N,N,N,N,N,N,N,N,N,N,N,N,N,,,N,N,N,N,N,N,N,N,N,N,N,2021/09/04,https://www.interiorhealth.ca/HedgehogPortal/facility/Table,N,Y,N
3772,Licensed Group,Westsyde Country Day Montessori Preschool & Kindergarten,2990 Westsyde Rd,,Kamloops,V2B 7E9,50.759362,-120.349202,250-579-2465,,wcdm@shaw.ca,N,N,N,N,N,N,N,N,N,N,N,N,N,N,N,N,N,,,N,N,N,N,N,N,N,N,N,N,N,2021/07/06,https://www.interiorhealth.ca/HedgehogPortal/facility/Table,N,N,N
3773,Licensed Family,Honey Bee Academy Family Daycare,3772 Nicola St,,Abbotsford,V2T 4Z8,49.070569,-122.318733,604-744-9109,,angelwing9@hotmail.com,N,N,N,N,N,N,N,N,N,N,N,N,N,N,N,N,N,,,N,N,N,N,N,N,N,N,N,N,N,2021/09/16,http://www.healthspace.ca/fha/childcare,N,Y,N
3774,Licensed Group,Gca Montessori,103-104 14410 108Th Ave,,Surrey,V3T 5T3,49.199123,-122.850651,604-787-8604,,,N,N,N,N,N,N,N,N,N,N,N,N,N,N,N,N,N,,,N,N,N,N,N,N,N,Y,Y,N,Y,2021/09/16,http://www.healthspace.ca/fha/childcare,N,Y,N
3775,Licensed Group,Owl At The Barn (3-5 Gdc),2323 Main Mall UBC,,Vancouver,V6T 1Z4,49.262586,-123.251009,604-822-9386,,joel.kobylka@ubc.ca,N,N,N,N,N,N,N,N,N,N,N,N,N,N,N,N,N,,,N,N,N,N,N,N,N,N,N,N,N,2021/09/23,https://inspections.vcha.ca/ChildCare/Table,N,Y,N
3776,Licensed Group,Owl At The Barn (0-3 Gdc),2323 Main Mall,,Vancouver,V6T 1Z4,49.262093,-123.250506,604-822-9386,,joel.kobylka@ubc.ca,N,N,N,N,N,N,N,N,N,N,N,N,N,N,N,N,N,,,N,N,N,N,N,N,N,N,N,N,N,2021/09/23,https://inspections.vcha.ca/ChildCare/Table,N,Y,N
3777,Licensed Group,Creative Beginnings Preschool,C - 1440 Hugh Allan Drive,,Kamloops,V1S 1L8,50.651853,-120.377866,250-319-8586,,iwende@shaw.ca,N,N,N,N,N,N,N,N,N,N,N,N,N,N,N,N,N,,,N,N,N,N,N,N,N,N,N,Y,N,2021/09/23,https://www.interiorhealth.ca/HedgehogPortal/facility/Table,N,Y,N
3778,Licensed Family,Kenagnes Family Child Care,534 49Th Ave E,,Vancouver,V5W 2G9,49.225253,-123.093476,778-329-2525,,jbearfamily@gmail.com,N,N,N,N,N,N,N,N,N,N,N,N,N,N,N,N,N,,,N,N,N,N,N,N,N,Y,Y,N,N,2021/09/03,https://inspections.vcha.ca/ChildCare/Table,N,Y,N
3779,Licensed Group,YMCA Lac Des Bois Care And Learning Centre,4131 Rainbow Drive,,Prince George,V2M 3W3,53.916655,-122.797667,250-562-9341,,corrine.hemeryck@nbcy.org,N,N,N,N,N,N,N,N,N,N,N,N,N,N,N,N,N,,,N,N,N,N,N,N,N,N,N,N,N,2021/09/13,http://www.healthspace.ca/Clients/NHA/NHA_Website.nsf/CCFL-Frameset,N,Y,N
3780,Licensed Group,YMCA Immaculate Conception School Age Child Care,3285 Cathedral Drive,,Prince George,V2N 5R2,53.859223,-122.796693,250-562-9341,,corrine.hemeryck@nbcy.org,N,N,N,N,N,N,N,N,N,N,N,N,N,N,N,N,N,,,N,N,N,N,N,N,N,N,N,N,Y,2021/07/11,http://www.healthspace.ca/Clients/NHA/NHA_Website.nsf/CCFL-Frameset,N,Y,N
3781,Licensed Group,The Clubhouse At Cottonwoods,2255 Ethel Street,,Kelowna,V1Y 2Z9,49.874117,-119.48125,250-860-4393,,cnoga@clubhousechildcare.com,N,N,N,N,N,N,N,N,N,N,N,N,N,N,N,N,N,,,N,N,N,N,N,N,N,N,Y,N,N,2021/09/17,https://www.interiorhealth.ca/HedgehogPortal/facility/Table,N,Y,N
3782,Licensed Group,Webster Kindercare,395 Highway 3B,,Trail,V1R 2G5,49.098928,-117.72265,250-368-3166,,sunshinecentre@telus.net,N,N,N,N,N,N,N,N,N,N,N,N,N,N,N,N,N,,,N,N,N,N,N,N,N,N,N,N,N,2021/09/24,https://www.interiorhealth.ca/HedgehogPortal/facility/Table,N,Y,N
3783,Licensed Group,Mini Miracles Family Centre,4006 8Th Avenue,,Port Alberni,V9Y 4S4,49.24947,-124.801331,250-727-6893,,lderzaph@cisdv.bc.ca,N,N,N,N,N,N,N,N,N,N,N,N,N,N,N,N,N,,,N,N,N,N,N,N,N,N,N,N,Y,2021/09/24,http://www.healthspace.ca/Clients/VIHA/VIHA_Website.nsf/CCFL-Frameset,N,Y,N
3784,Licensed Group,Birdsong Dayschool,2664 Courtney Way,,Shawnigan Lake,V0R 2W2,48.648531,-123.612045,250-710-9712,,birdsongdayschool@gmail.com,N,N,N,N,N,N,N,N,N,N,N,N,N,N,N,N,N,,,N,N,N,N,N,N,N,N,Y,N,N,2021/09/02,http://www.healthspace.ca/Clients/VIHA/VIHA_Website.nsf/CCFL-Frameset,N,Y,N
3785,Licensed Group,Rise N Shine Childcare Center Inc.,16740 85 Ave,,Surrey,V4N 4W3,49.157022,-122.758172,604-779-1940,,risenshinechildcarecenter@gmail.com,N,N,N,N,N,N,N,N,N,N,N,N,N,N,N,N,N,,,N,N,N,N,N,N,N,N,Y,N,Y,2021/09/17,http://www.healthspace.ca/fha/childcare,N,Y,N
3786,Licensed Group,Fine Art Of Play Childcare,32420 7Th Ave,,Mission,V2V 2B5,49.138865,-122.326892,604-287-3463,,fineartofplay@gmail.com,N,N,N,N,N,N,N,N,N,N,N,N,N,N,N,N,N,,,N,N,N,N,N,N,N,N,N,N,N,2021/09/16,http://www.healthspace.ca/fha/childcare,N,N,N
3787,Licensed Group,Khalsa Child Care Centre,30640 Blue Ridge Drive,,Abbotsford,V2T 5W3,49.064541,-122.37262,604-594-0553,,lkhundal@khalsaschool.ca,N,N,N,N,N,N,N,N,N,N,N,N,N,N,N,N,N,,,N,N,N,N,N,N,N,Y,Y,N,N,2021/09/15,http://www.healthspace.ca/fha/childcare,N,Y,N
3788,Licensed Group,Jolly Giant Childcare Ltd. - Selby Location,436 Selby Street,,Nanaimo,V9R 2R7,49.162669,-123.939745,250-754-8833,,selby@jollygiant.ca,N,N,N,N,N,N,N,N,N,N,N,N,N,N,N,N,N,,,N,N,N,N,N,N,N,Y,Y,N,N,2021/09/01,http://www.healthspace.ca/Clients/VIHA/VIHA_Website.nsf/CCFL-Frameset,N,Y,N
3789,Licensed Family,Naturecraft Learning Centre,3078 Anchor Way,,Nanoose Bay,V9P 9G2,49.277832,-124.160377,250-951-3953,,naturecraft@shaw.ca,N,N,N,N,N,N,N,N,N,N,N,N,N,N,N,N,N,,,N,N,N,N,N,N,N,N,Y,N,Y,2021/09/16,http://www.healthspace.ca/Clients/VIHA/VIHA_Website.nsf/CCFL-Frameset,N,Y,N
3790,Licensed Family,Amanda's Angels,5428 Giscome Rd,,Prince George,V2N 6S7,53.89867,-122.64316,250-963-0044,,amandasangelsdaycare1@gmail.com,N,N,N,N,N,N,N,N,N,N,N,N,N,N,N,N,N,,,N,N,N,N,N,N,N,N,N,N,N,2021/09/26,http://www.healthspace.ca/Clients/NHA/NHA_Website.nsf/CCFL-Frameset,N,Y,N
3791,Licensed Group,T.E.A.M. Ii Child Care Center,1649 Mount Newton Cross Road,,Saanichton,V8M 1L1,48.596131,-123.431554,250-544-0022,,teamchildcareilc@gmail.com,N,N,N,N,N,N,N,N,N,N,N,N,N,N,N,N,N,,,N,N,N,N,N,N,N,N,Y,Y,N,2021/09/16,http://www.healthspace.ca/Clients/VIHA/VIHA_Website.nsf/CCFL-Frameset,N,Y,N
3792,Licensed Group,Bgccvi - Coal Tyee,2280 Sun Valley Drive,,Nanaimo,V9T 6P1,49.193009,-124.00577,250-616-7681,,coaltyee@bgccvi.com,N,N,N,N,N,N,N,N,N,N,N,N,N,N,N,N,N,Not offered,Not offered,N,N,N,N,N,N,N,N,Y,N,Y,2021/09/17,,N,Y,N
3793,Licensed Group,Chuck Bailey Preschool And Pre-K,13458 107A St,,Surrey,V3T 4B3,49.197186,-122.849782,604-598-7967,,rlowens@surrey.ca,N,N,N,N,N,N,N,N,N,N,N,N,N,N,N,N,N,,,N,N,N,N,N,N,N,N,N,N,N,2021/09/27,http://www.healthspace.ca/fha/childcare,N,Y,N
3794,Licensed Group,Little Explorers Preschool,12145 Laity St,,Maple Ridge,V2X 5A7,49.223139,-122.632501,604-722-2410,,explores@telus.net,,,,,,,,,,,,,,,,,,,,,,,,,,,,,,,,,Y,N,N
3795,Licensed Family,Durant Kids Center,1210 Durant Dr,,Coquitlam,V3B 6P7,49.287166,-122.805693,604-552-5775,,durantkidscenter@gmail.com,N,N,N,N,N,N,N,N,N,N,N,N,N,N,N,N,N,,,N,N,N,N,N,N,N,N,Y,N,N,2021/09/01,http://www.healthspace.ca/fha/childcare,N,Y,N
3796,Licensed Group,The Maria Montessori School,8597 156 St,,Surrey,V3S 3R8,49.158972,-122.790394,604-597-0638,,themariamontessoripreschool@gmail.com,N,N,N,N,N,N,N,N,N,N,N,N,N,N,N,N,N,,,N,N,N,N,N,N,N,N,N,N,N,2021/07/02,http://www.healthspace.ca/fha/childcare,N,N,N
3797,Licensed Group,Core Education & Fine Arts - Kingsway,4021 Kingsway,,Burnaby,V5H 1Y9,49.233263,-123.015456,604-719-4050,,accounts@cefa.ca,N,N,N,N,N,N,N,N,N,N,N,N,N,N,N,N,N,,,N,N,N,N,N,N,N,Y,Y,N,N,2021/07/13,http://www.healthspace.ca/fha/childcare,N,N,N
3798,Licensed Group,Baby Panda Childcare Centre,6060 Redfern Cres,,Richmond,V7C 2V7,49.164259,-123.148992,604-295-9100,,babypandarichmond@yahoo.com,N,N,N,N,N,N,N,N,N,N,N,N,N,N,N,N,N,Not offered,Not offered,N,N,N,N,N,N,N,Y,N,N,N,2021/09/20,https://inspections.vcha.ca/ChildCare/Table,N,Y,N
3799,Licensed Family,Smile N Grow Day Care Inc.,9474 153Rd St,,Surrey,V3R 9C7,49.174687,-122.798109,604-649-9769,,smilengrowcare@gmail.com,N,N,N,N,N,N,N,N,N,N,N,N,N,N,N,N,N,,,N,N,N,N,N,N,N,Y,Y,N,N,2021/09/16,http://www.healthspace.ca/fha/childcare,N,Y,N
3800,Licensed Family,Kelly's Daycare,1797 Sloan Ave,,Prince Rupert,V8J 4B8,54.296024,-130.336875,250-627-8986,,kellyskinner1@hotmail.com,N,N,N,N,N,N,N,N,N,N,N,N,N,N,N,N,N,,,N,N,N,N,N,N,N,Y,Y,N,Y,2021/09/15,,N,Y,N
3801,Licensed Family,Giggles Day Care,10861 Hollymount Dr,,Richmond,V7E 4Z3,49.134939,-123.164748,604-764-5157,,gigglesdaycare@shaw.ca,N,N,N,N,N,N,N,N,N,N,N,N,N,N,N,N,N,,,N,N,N,N,N,N,N,N,Y,N,N,2021/08/26,https://inspections.vcha.ca/ChildCare/Table,N,Y,N
3802,Licensed Group,Wind And Tide Preschool - Broadway,2700 East Broadway,,Vancouver,V5M 1Y8,49.261137,-123.04893,604-575-0549,,admin@windandtide.com,N,N,N,N,N,N,N,N,N,N,N,N,N,N,N,N,N,,,N,N,N,N,N,N,N,N,N,Y,N,2021/09/17,https://inspections.vcha.ca/ChildCare/Table,N,N,N
3803,Licensed Group,Lund Puddlejumpers Preschool,9654 Larson Rd,,Lund,V0N 2G0,49.979186,-124.756989,604-483-9000,,jomommadesigns@gmail.com,N,N,N,N,N,N,N,N,N,N,N,N,N,N,N,N,N,,,N,N,N,N,N,N,N,N,N,N,N,2021/07/19,https://inspections.vcha.ca/ChildCare/Table,N,N,N
3804,Licensed Group,Caring Hearts Child Care,1805 Aire Cres,,Port Coquitlam,V3C 2W6,49.249377,-122.778666,604-464-3399,,maryhillchildcare@gmail.com,N,N,N,N,N,N,N,N,N,N,N,N,N,N,N,N,N,Not offered,Not offered,N,N,N,N,N,N,N,N,N,N,N,2021/06/04,http://www.healthspace.ca/fha/childcare,N,Y,N
3805,Licensed Group,Little Acorn Care Centre,2629 Victor St,,Victoria,V8R 4E3,48.437032,-123.336965,250-370-9103,,littleacorn@oaklandsca.com,N,N,N,N,N,N,N,N,N,N,N,N,N,N,N,N,N,,,N,N,N,N,N,N,N,N,N,N,N,2021/09/08,http://www.healthspace.ca/Clients/VIHA/VIHA_Website.nsf/CCFL-Frameset,N,Y,N
3806,Licensed Group,Roots To Wings Maple Ridge Christian School,12140 204B St,,Maple Ridge,V2X 2Z5,49.223307,-122.653413,604-465-4442,,c.baxter@mrcs.ca,N,N,N,N,N,N,N,N,N,N,N,N,N,N,N,N,N,,,N,N,N,N,N,N,N,N,N,Y,N,2021/09/15,http://www.healthspace.ca/fha/childcare,N,N,N
3807,Licensed Group,Ucluelet Childrens Centre,500 Matterson Dr,,Ucluelet,V0R 3A0,48.939507,-125.546597,250-726-2339,,uclueletcare@gmail.com,N,N,N,N,N,N,N,N,N,N,N,N,N,N,N,N,N,,,N,N,N,N,N,N,N,N,N,N,N,2021/09/23,http://www.healthspace.ca/Clients/VIHA/VIHA_Website.nsf/CCFL-Frameset,N,Y,N
3808,Licensed Group,Kuddles Early Infant Stimulation Centre,370 Mathers Ave,,West Vancouver,V7S 1H3,49.336941,-123.125435,604-729-6538,,info@kuddles.ca,N,N,N,N,N,N,N,N,N,N,N,N,N,N,N,N,N,,,N,N,N,N,N,N,N,N,N,N,N,2021/09/02,https://inspections.vcha.ca/ChildCare/Table,N,Y,N
3809,Licensed Group,Downtown Ymca-Ywca Childcare,851 Broughton Street,,Victoria,V8W 1E5,48.422847,-123.36067,250-386-7511,,rhepworth@vancouverislandy.ca,N,N,N,N,N,N,N,N,N,N,N,N,N,N,N,N,N,,,N,N,N,N,N,N,N,N,Y,N,N,2021/09/23,http://www.healthspace.ca/Clients/VIHA/VIHA_Website.nsf/CCFL-Frameset,N,Y,N
3810,Licensed Group,Wind And Tide Preschool - Alice Brown,20011 44Th Ave,,Langley,V3A 6L8,49.083093,-122.66804,604-575-0549,,admin@windandtide.com,N,N,N,N,N,N,N,N,N,N,N,N,N,N,N,N,N,,,N,N,N,N,N,N,N,N,N,Y,N,2021/09/17,http://www.healthspace.ca/fha/childcare,N,N,N
3811,Licensed Group,Happy May Child Care Centre Ii,170 4751 Garden City Road,,Richmond,V6X 3M7,49.177834,-123.124703,604-218-6581,,meikang@hotmail.com,N,N,N,N,N,N,N,N,N,N,N,N,N,N,N,N,N,,,N,N,N,N,N,N,N,Y,N,N,N,2021/08/31,https://inspections.vcha.ca/ChildCare/Table,N,Y,N
3812,Licensed Group,Ntacs After School Program,4936 Barriere Town Rd,,Barriere,V0E 1E0,51.188983,-120.134287,250-672-0033,,ntac@telus.net,N,N,N,N,N,N,N,N,N,N,N,N,N,N,N,N,N,,,N,N,N,N,N,N,N,N,N,N,N,2021/08/17,https://www.interiorhealth.ca/HedgehogPortal/facility/Table,N,N,N
3813,Licensed Group,Helew'u' Child Care Society,4155 Belshaw St,,Merritt,V1K 1R1,50.126259,-120.766085,250-378-3368,,hccs_daycare@hotmail.com,N,N,N,N,N,N,N,N,N,N,N,N,N,N,N,N,N,,,N,N,N,N,N,N,N,N,N,N,N,2021/08/26,https://www.interiorhealth.ca/HedgehogPortal/facility/Table,N,Y,N
3814,Licensed Group,5 Corners Day Care,13620 Grosvenor Rd,,Surrey,V3R 5C9,49.19918,-122.844829,604-496-5050,,5cornersdaycare@gmail.com,N,N,N,N,N,N,N,N,N,N,N,N,N,N,N,N,N,,,N,N,N,N,N,N,N,N,Y,N,Y,2021/09/14,http://www.healthspace.ca/fha/childcare,N,Y,N
3815,Licensed Group,Little Harvard Learning Centre Ltd.,6985 142 St,,Surrey,V3W 5N1,49.129197,-122.830481,778-893-5437,,littleharvard@hotmail.com,N,N,N,N,N,N,N,N,N,N,N,N,N,N,N,N,N,,,N,N,N,N,N,N,N,N,N,Y,Y,2021/06/21,http://www.healthspace.ca/fha/childcare,N,Y,N
3816,Licensed Group,A To Z Childcare Centre #4,15438 92Nd Ave,,Surrey,V3R 5W1,49.169925,-122.794654,604-719-6736,,info@a2zchildcare.ca,N,N,N,N,N,N,N,N,N,N,N,N,N,N,N,N,N,,,N,N,N,N,N,N,N,Y,Y,N,N,2021/09/15,http://www.healthspace.ca/fha/childcare,N,Y,N
3817,Licensed Group,Bgccvi - Ladysmith Child & Family Centre,220 High Street,,Ladysmith,V9G 1A2,48.992851,-123.820591,250-924-2426,,ladysmith@bgccvi.com,N,N,N,N,N,N,N,N,N,N,N,N,N,N,N,N,N,Not offered,Not offered,N,N,N,N,N,N,N,Y,Y,N,Y,2021/09/17,,N,N,N
3818,Licensed Family,Cuties Child Care Centre,6619 141B St,,Surrey,V3W 9P1,49.122959,-122.830156,604-593-1666,,cutieschildcare@gmail.com,N,N,N,N,N,N,N,N,N,N,N,N,N,N,N,N,N,,,N,N,N,N,N,N,N,Y,Y,N,Y,2021/09/08,http://www.healthspace.ca/fha/childcare,N,Y,N
3819,Licensed Group,Ladybug Landing Preschool,31789 Thornhill Pl,,Abbotsford,V2T 6Y3,49.067202,-122.344067,604-850-2474,,ladybuglanding@hotmail.com,N,N,N,N,N,N,N,N,N,N,N,N,N,N,N,N,N,Not offered,Not offered,N,N,N,N,N,N,N,N,N,Y,N,2021/07/06,http://www.healthspace.ca/fha/childcare,N,N,N
3820,Licensed Group,Little Ark Childcare Infant/Toddler Centre Ltd.,4405 27Th Avenue,,Vernon,V1T 6L2,50.2611,-119.299005,778-475-5505,,little.ark.elc@gmail.com,N,N,N,N,N,N,N,N,N,N,N,N,N,N,N,N,N,,,N,N,N,N,N,N,N,Y,N,N,N,2021/09/16,https://www.interiorhealth.ca/HedgehogPortal/facility/Table,N,Y,N
3821,Licensed Family,Monkey Minders,220 Blackman St,,New Westminster,V3L 2A7,49.220868,-122.921667,604-518-1419,,monkeymindersnewwest@gmail.com,N,N,N,N,N,N,N,N,N,N,N,N,N,N,N,N,N,,,N,N,N,N,N,N,N,N,Y,N,N,2021/09/10,http://www.healthspace.ca/fha/childcare,N,Y,N
3822,Licensed Group,Caring Hearts Child Care,1854 Western Dr,,Port Coquitlam,V3C 2X7,49.250595,-122.778527,604-464-3399,,info.caringhearts@gmail.com,N,N,N,N,N,N,N,N,N,N,N,N,N,N,N,N,N,Not offered,Not offered,N,N,N,N,N,N,N,N,N,N,N,2021/06/17,,N,Y,N
3823,Licensed Group,Deh Zona Day Care Centre,4005 Chalo Rd,,Fort Nelson,V0C 1R0,55.686314,-121.629714,250-774-2361,,leslie.blaikie@fnnation.ca,N,N,N,N,N,N,N,N,N,N,N,N,N,N,N,N,N,,,N,N,N,N,N,N,N,N,N,N,N,2021/09/07,http://www.healthspace.ca/Clients/NHA/NHA_Website.nsf/CCFL-Frameset,N,N,N
3824,Licensed Group,Gokidz Child Services,106 2255 King George Blvd,,Surrey,V4A 5A4,49.042932,-122.790762,604-910-7968,,info@gokidz.ca,N,N,N,N,N,N,N,N,N,N,N,N,N,N,N,N,N,,,N,N,N,N,N,N,N,N,N,N,N,2021/09/20,http://www.healthspace.ca/fha/childcare,N,Y,N
3825,Licensed Family,Morning Star Family Child Care,1345 Aldrin Pl,,Burnaby,V5A 2N9,49.272097,-122.955298,604-325-9996,,beilee2008@gmail.com,N,N,N,N,N,N,N,N,N,N,N,N,N,N,N,N,N,,,N,N,N,N,N,N,N,N,N,N,N,2021/09/20,http://www.healthspace.ca/fha/childcare,N,Y,N
3826,Licensed Group,Atelier Children's Centre - (Toddler Program),396 - 825 Homer,,Vancouver,V6B 2W2,49.279355,-123.117611,604-718-8279,,info@vsocc.org,N,N,N,N,N,N,N,N,N,N,N,N,N,N,N,N,N,,,N,N,N,N,N,N,N,N,N,N,N,2021/09/07,https://inspections.vcha.ca/ChildCare/Table,N,Y,N
3827,Licensed Group,Atelier Children's Centre - (3-5 Program),396 - 825 Homer,,Vancouver,V6B 2W2,49.279355,-123.117611,604-718-6555,,info@vsocc.org,N,N,N,N,N,N,N,N,N,N,N,N,N,N,N,N,N,,,N,N,N,N,N,N,N,N,N,N,N,2021/09/07,https://inspections.vcha.ca/ChildCare/Table,N,Y,N
3828,Licensed Family,Precious Moments Family Child Care,1860 Langan Ave,,Port Coquitlam,V3C 5K2,49.249874,-122.768439,604-942-7503,,ashanti@telus.net,N,N,N,N,N,N,N,N,N,N,N,N,N,N,N,N,N,,,N,N,N,N,N,N,N,Y,N,N,N,2021/09/27,http://www.healthspace.ca/fha/childcare,N,N,N
3829,Licensed Group,Angels Playhouse Infant & Toddler Child Care Centre,103 7339 Macpherson Ave,,Burnaby,V5J 0B1,49.21707,-122.983556,604-809-3868,,angelsplayhouse@gmail.com,Y,N,N,N,N,N,Y,N,N,N,N,N,N,Y,N,N,N,Not offered,Not offered,N,N,N,N,N,Y,Y,Y,N,N,N,2021/09/02,http://www.healthspace.ca/fha/childcare,N,Y,N
3830,Licensed Group,Little Friends Children's Centre #3,11061 160Th St,,Surrey,V4N 1J2,49.203455,-122.779056,778-385-4120,,littlefriendslearning@gmail.com,N,N,N,N,N,N,N,N,N,N,N,N,N,N,N,N,N,,,N,N,N,N,N,N,N,N,N,N,N,2021/09/17,http://www.healthspace.ca/fha/childcare,N,Y,N
3831,Licensed Group,Wonder Years Daycare - Murrayville,4748 222 St,,Langley,V2Z 1B1,49.088416,-122.606909,604-612-0439,,info@wonder-years.ca,N,N,N,N,N,N,N,N,N,N,N,N,N,N,N,N,N,,,N,N,N,N,N,N,N,Y,N,N,N,2021/09/19,,N,Y,N
3832,Licensed Group,Movin On Up,270 9Th Ave,,Burns Lake,V0J 1E0,54.235854,-125.756531,250-692-9486,,tamara.janzen@gmail.com,N,N,N,N,N,N,N,N,N,N,N,N,N,N,N,N,N,,,N,N,N,N,N,N,N,N,N,N,N,2021/09/20,http://www.healthspace.ca/Clients/NHA/NHA_Website.nsf/CCFL-Frameset,N,Y,N
3833,Licensed Family,Multi Colours Daycare,18841 68Th Ave,,Surrey,V4N 0B3,49.126314,-122.700162,778-992-2744,,sandy978@gmail.com,N,N,N,N,N,N,N,N,N,N,N,N,N,N,N,N,N,,,N,N,N,N,N,N,N,N,N,N,Y,2021/09/21,http://www.healthspace.ca/fha/childcare,N,Y,N
3834,Licensed Family,Rock N Tots Daycare,20216 53 Ave,,Langley,V3A 3V1,49.0982,-122.662264,604-530-9644,,chandrasurinak@yahoo.com,N,N,N,N,N,N,N,N,N,N,N,N,N,N,N,N,N,,,N,N,N,N,N,N,N,N,N,N,N,2021/09/15,http://www.healthspace.ca/fha/childcare,N,Y,N
3835,Licensed Family,Little Friends Playday Childcare,3787 Manor St,,Burnaby,V5G 1A8,49.25754,-123.020238,236-991-6736,www.littlefriendsplaydaychildcare.com,littlefriendsplayday@gmail.com,N,N,N,N,N,N,N,N,N,N,N,N,N,N,N,N,N,,,N,N,N,N,N,N,N,N,N,N,N,2021/09/15,http://www.healthspace.ca/fha/childcare,N,Y,N
3836,Licensed Family,Fleetwood Gardens Childcare Centre,8086 158 St,,Surrey,V4N 0S6,49.149777,-122.784241,778-881-1064,,fleetwoodgardenschildcare@gmail.com,N,N,N,N,N,N,N,N,N,N,N,N,N,N,N,N,N,,,N,N,N,N,N,N,N,N,N,N,N,2021/09/15,http://www.healthspace.ca/fha/childcare,N,Y,N
3837,Licensed Family,Small Explorers Family Daycare,5488 Tatton Stn Rd,,100 Mile House,V0K 2E1,51.712523,-121.409864,250-395-6695,,smallexplorersfamilydaycare@hotmail.ca,N,N,N,N,N,N,N,N,N,N,N,N,N,N,N,N,N,,,N,N,N,N,N,N,N,N,Y,N,N,2021/09/15,https://www.interiorhealth.ca/HedgehogPortal/facility/Table,N,Y,N
3838,Licensed Family,Cat & Mouse Playhouse,395 Phipps Cres,,Kelowna,V1X 7N9,49.902538,-119.381399,250-870-3486,,catandmouseplayhouse@gmail.com,N,N,N,N,N,N,N,N,N,N,N,N,N,N,N,N,N,,,N,N,N,N,N,N,N,Y,Y,N,N,2021/08/06,https://www.interiorhealth.ca/HedgehogPortal/facility/Table,N,Y,N
3839,Licensed Group,Core Education & Fine Arts (0-3 Gdc),2946 Commercial Drive,,Vancouver,V5N 4C9,49.258109,-123.069456,604-879-2332,,accounts@cefa.ca,N,N,N,N,N,N,N,N,N,N,N,N,N,N,N,N,N,,,N,N,N,N,N,N,N,Y,Y,N,N,2021/07/13,http://www.vch.ca/your_environment/facility_licensing/residential_care/inspection_reports/,N,N,N
3840,Licensed Group,Montessori Minds Childcare Centre Ltd #2,526 1310 Cariboo St,,New Westminster,V3M 1X2,49.204356,-122.930357,778-837-9496,,learn@montessoriminds.ca,N,N,N,N,N,N,N,N,N,N,N,N,N,N,N,N,N,,,N,N,N,N,N,N,N,Y,Y,N,N,2021/09/13,http://www.healthspace.ca/fha/childcare,N,N,N
3841,Licensed Family,Jessie's Family Child Care,9047 145A St,,Surrey,V3R 7Y3,49.167396,-122.819298,604-583-1085,,jessiesdaycare@hotmail.ca,N,N,N,N,N,N,N,N,N,N,N,N,N,N,N,N,N,,,N,N,N,N,N,N,N,N,Y,N,N,2021/09/17,http://www.healthspace.ca/fha/childcare,N,N,N
3842,Licensed Group,Blueberry Field Child Care Inc.,9440 Williams Rd,,Richmond,V7A 1H1,49.140531,-123.119607,778-708-1751,,susan.nacaytuna@gmail.com,N,N,N,N,N,N,N,N,N,N,N,N,N,N,N,N,N,,,N,N,N,N,N,N,N,N,N,N,N,2021/09/19,https://inspections.vcha.ca/ChildCare/Table,N,Y,N
3843,Licensed Family,Crawl To Walk Day Care Centre Ltd,12678 68 Ave,,Surrey,V3W 1G4,49.126479,-122.871451,604-767-0248,,crawltowalkdaycare@gmail.com,N,N,N,N,N,N,Y,Y,N,Y,N,N,Y,N,N,N,Y,Not offered,Not offered,N,N,N,N,N,N,N,N,Y,N,N,2021/08/17,,N,Y,N
3844,Licensed Group,St. Francis Xavier Montessori Child Care Centre-Daycare,428 Great Northern Way,,Vancouver,V5T 4S5,49.266462,-123.094521,604-254-2714,,sfxchildcarecentre@gmail.com,N,N,N,N,N,N,N,N,N,N,N,N,N,N,N,N,N,,,N,N,N,N,N,N,N,N,Y,N,N,2021/09/19,https://inspections.vcha.ca/ChildCare/Table,N,Y,N
3845,Licensed Group,Les Petits Artistes Montessori Centre,3150 Ash Street,,Vancouver,V5Z 3C9,49.258103,-123.117326,604-569-1206,,lpamontessori@gmail.com,N,N,N,N,N,N,N,N,N,N,N,N,N,N,N,N,N,Not offered,Not offered,N,N,N,N,N,N,N,N,N,N,N,2021/09/04,https://inspections.vcha.ca/ChildCare/Table,N,Y,N
3846,Licensed Group,Kidz-R-Brite At The Farm,5120 Christie Road,,Ladysmith,V9G 1J2,49.009404,-123.846272,250-245-2189,,cldesrochers@shaw.ca,N,N,N,N,N,N,N,N,N,N,N,N,N,N,N,N,N,,,N,N,N,N,N,N,N,N,N,N,N,2021/09/15,http://www.healthspace.ca/Clients/VIHA/VIHA_Website.nsf/CCFL-Frameset,N,Y,N
3847,Licensed Family,Toor's Daycare Center,31406 Springhill Crt,,Abbotsford,V2T 4J9,49.048445,-122.354005,604-614-3828,,toorsdaycare@hotmail.com,Y,Y,N,N,Y,Y,Y,Y,N,Y,Y,N,Y,N,N,N,N,Extra fee,Extra fee,N,N,N,N,N,N,N,Y,Y,N,N,2021/08/23,,N,Y,N
3848,Licensed Group,Kinder Play Child Care Canoe,7210 51St Street Ne,,Salmon Arm,V0E 1K0,50.752678,-119.225979,250-803-1104,,info@kinderplay.ca,N,N,N,N,N,N,N,N,N,N,N,N,N,N,N,N,N,,,N,N,N,N,N,N,N,Y,Y,N,N,2021/09/21,,N,Y,N
3849,Licensed Group,Kiddyland Multiple Intelligence Children Centre,11331 Williams Road,,Richmond,V7A 1J2,49.140929,-123.098713,604-241-2733,,kiddylandmi@gmail.com,N,N,N,N,N,N,N,N,N,N,N,N,N,N,N,N,N,,,N,N,N,N,N,N,N,N,Y,N,N,2021/09/15,https://inspections.vcha.ca/ChildCare/Table,N,Y,N
3850,Licensed Group,Willow Daycare,595 Harmston Ave,,Courtenay,V9N 2X4,49.688497,-125.003542,250-897-2173,,willowdaycare@telus.net,N,N,N,N,N,N,N,N,N,N,N,N,N,N,N,N,N,,,N,N,N,N,N,N,N,N,Y,N,N,2021/09/12,http://www.healthspace.ca/Clients/VIHA/VIHA_Website.nsf/CCFL-Frameset,N,Y,N
3851,Licensed Group,Little Birds Child Care Centre,14750 108 Ave,,Surrey,V3R 1V8,49.198552,-122.81368,778-394-3210,,thelittlebirdsitcenter@gmail.com,N,N,N,N,N,N,N,N,N,N,N,N,N,N,N,N,N,,,N,N,N,N,N,N,N,N,N,N,N,2021/09/20,http://www.healthspace.ca/fha/childcare,N,Y,N
3852,Licensed Group,Creative Moments Childcare Centre,105 6977 128 St,,Surrey,V3W 4E1,49.129685,-122.868064,604-417-1135,,creativemomentschildcare@gmail.com,N,N,N,N,N,N,N,N,N,N,N,N,N,N,N,N,N,,,N,N,N,N,N,N,N,N,N,Y,Y,2021/08/18,http://www.healthspace.ca/fha/childcare,N,Y,N
3853,Licensed Group,Pioggia Group Daycare (Gdc 3-5),2881 Acadia Rd,,Vancouver,V6T 1S1,49.261184,-123.234089,604-822-9386,,joel.kobylka@ubc.ca,N,N,N,N,N,N,N,N,N,N,N,N,N,N,N,N,N,,,N,N,N,N,N,N,N,N,N,N,N,2021/09/23,https://inspections.vcha.ca/ChildCare/Table,N,Y,N
3854,Licensed Group,Pioggia Group Daycare Toddler,2881 Acadia Rd,,Vancouver,V6T 1S1,49.261184,-123.234089,604-822-9386,,joel.kobylka@ubc.ca,N,N,N,N,N,N,N,N,N,N,N,N,N,N,N,N,N,,,N,N,N,N,N,N,N,N,N,N,N,2021/09/23,https://inspections.vcha.ca/ChildCare/Table,N,Y,N
3855,Licensed Group,Agassiz Christian Preschool,7571 Morrow Rd,,Agassiz,V0M 1A2,49.236275,-121.750301,604-796-9310,,office@agassizchristian.com,N,N,N,N,N,N,N,N,N,N,N,N,N,N,N,N,N,,,N,N,N,N,N,N,N,N,N,Y,N,2021/07/02,http://www.healthspace.ca/fha/childcare,N,N,N
3856,Licensed Family,Children's Corner Child Care,14180 71A Ave,,Surrey,V3W 8C7,49.13265,-122.829444,604-598-2910,,childrenscorner@shaw.ca,N,N,N,N,N,N,N,N,N,N,N,N,N,N,N,N,N,,,N,N,N,N,N,N,N,Y,Y,N,Y,2021/08/11,,N,Y,N
3857,Licensed Group,Les Petits Du Pacifique,5538 Shorncliffe Ave,,Sechelt,V0N 3A0,49.473342,-123.763801,604-741-5852,,petits_du_pacifique@csf.bc.ca,N,N,N,N,N,N,N,N,N,N,N,N,N,N,N,N,N,,,N,N,N,N,N,N,N,N,Y,N,N,2021/06/17,https://inspections.vcha.ca/ChildCare/Table,N,Y,N
3858,Licensed Group,Lil Bloomers Childcare Centre,195 Windsor Rd E,,North Vancouver,V7N 1J9,49.337978,-123.069024,604-987-7673,,lesleyslilbloomers@gmail.com,N,N,N,N,N,N,N,N,N,N,N,N,N,N,N,N,N,,,N,N,N,N,N,N,N,Y,Y,N,N,2021/09/15,https://inspections.vcha.ca/ChildCare/Table,N,Y,N
3859,Licensed Group,Brightstart Children's Academy Ltd,1450 Johnson Street,,Coquitlam,V3E 2T1,49.300045,-122.800673,778-883-0529,,directors@brightstart.ca,N,N,N,N,N,N,N,N,N,N,N,N,N,N,N,N,N,,,N,N,N,N,N,N,N,N,N,N,Y,2021/09/20,http://www.healthspace.ca/fha/childcare,N,Y,N
3860,Licensed Group,Reach For The Stars Montessori,3440 Boundary Road,,Burnaby,V5M 4A5,49.253757,-123.023106,604-688-7827,,reachforthestars@telus.net,N,N,N,N,N,N,N,N,N,N,N,N,N,N,N,N,N,,,N,N,N,N,N,N,N,N,N,N,N,2021/09/26,http://www.healthspace.ca/fha/childcare,N,Y,N
3861,Licensed Group,Mountain View Preschool,2725 Lonsdale Ave,,North Vancouver,V7N 3J2,49.334652,-123.072123,604-723-1494,,mira@pixfolios.com,N,N,N,N,N,N,N,N,N,N,N,N,N,N,N,N,N,,,N,N,N,N,N,N,N,N,N,Y,N,2021/06/26,,N,N,N
3862,Licensed Group,Bowen Child Care Centre,9160 Pauleshin Cres,,Richmond,V7E 5X1,49.145419,-123.163932,778-320-5758,,liwei45ca@yahoo.ca,N,N,N,N,N,N,N,N,N,N,N,N,N,N,N,N,N,,,N,N,N,N,N,N,N,N,N,N,N,2021/09/15,https://inspections.vcha.ca/ChildCare/Table,N,Y,N
3863,Licensed Group,Westview Child Care Centre,800 Summit Ave,,Prince Rupert,V8J 2A3,54.306401,-130.326709,250-622-2298,,wccc@citywest.ca,N,N,N,N,N,N,N,N,N,N,N,N,N,N,N,N,N,,,N,N,N,N,N,N,N,N,N,N,N,2021/09/02,http://www.healthspace.ca/Clients/NHA/NHA_Website.nsf/CCFL-Frameset,N,Y,N
3864,Licensed Group,A Place To Grow Childcare Centre,13730 94A Ave,,Surrey,V3V 1Z2,49.174629,-122.842224,604-585-5691,,claudia.fenwick@fraserhealth.ca,Y,N,N,N,N,N,Y,Y,N,N,N,N,Y,Y,N,N,Y,Not offered,Not offered,N,N,N,N,Y,Y,Y,Y,Y,N,N,2021/08/26,http://www.healthspace.ca/fha/childcare,N,Y,N
3865,Licensed Group,Harbourview Daycare,540 Penticton N,,Vancouver,V5K 3L8,49.29093,-123.050527,604-254-5401,,maryb@kiwassa.ca,N,N,N,N,N,N,N,N,N,N,N,N,N,N,N,N,N,,,N,N,N,N,N,N,N,N,N,N,N,2021/07/22,https://inspections.vcha.ca/ChildCare/Table,N,Y,N
3866,Licensed Group,Katies Korner Northfield,2249 Northfield Rd,,Nanaimo,V9S 3C3,49.191614,-123.99603,250-714-4555,,info@katieskornerchildcare.com,N,N,N,N,N,N,N,N,N,N,N,N,N,N,N,N,N,,,N,N,N,N,N,N,N,N,N,N,N,2021/09/15,http://www.healthspace.ca/Clients/VIHA/VIHA_Website.nsf/CCFL-Frameset,N,Y,N
3867,Licensed Group,Olive Grove Childcare,510 1070 Lynn Valley Road,,North Vancouver,V7J 1Z8,49.334065,-123.044782,604-982-5871,,info@olivegrovechildcare.com,N,N,N,N,N,N,N,N,N,N,N,N,N,N,N,N,N,,,N,N,N,N,N,N,N,N,N,N,N,2021/09/15,https://inspections.vcha.ca/ChildCare/Table,N,Y,N
3868,Licensed Group,Highlands Child Care,3150 Colwood Drive,,North Vancouver,V7R 2R6,49.338192,-123.097072,604-985-6958,,highlandskidsclub@telus.net,Y,N,N,N,N,N,N,N,N,Y,Y,N,N,N,N,N,N,Not offered,Not offered,Y,Y,Y,N,Y,Y,Y,N,N,N,N,2021/08/09,http://www.vch.ca/your_environment/facility_licensing/residential_care/inspection_reports/,N,N,N
3869,Licensed Group,Smiling Stars Daycare,1602 Pemberton Ave,,North Vancouver,V7P 2S6,49.323092,-123.107344,604-986-3380,,moji@smilingstarsdaycare.com,N,N,N,N,N,N,N,N,N,N,N,N,N,N,N,N,N,,,N,N,N,N,N,N,N,N,N,N,N,2021/09/22,https://inspections.vcha.ca/ChildCare/Table,N,Y,Y
3870,Licensed Group,Smiling Stars Daycare,1602 Pemberton Ave,,North Vancouver,V7P 2S6,49.323092,-123.107344,604-986-3380,,moji@smilingstarsdaycare.com,N,N,N,N,N,N,N,N,N,N,N,N,N,N,N,N,N,,,N,N,N,N,N,N,N,N,N,N,N,2021/09/17,https://inspections.vcha.ca/ChildCare/Table,N,Y,Y
3871,Licensed Group,Little Cedar School Age Care,1530 E 22,,Vancouver,V5N 2P1,49.250145,-123.072864,604-872-3303,,info@littlecedar.ca,Y,N,N,N,N,N,N,N,N,Y,Y,N,N,N,N,N,N,Not offered,Include in fee,N,N,N,N,N,Y,N,N,N,N,Y,2021/09/19,https://inspections.vcha.ca/ChildCare/Table,N,Y,N
3872,Licensed Group,Fun And Learning Out Of School,20 1764 Valleyview Drive,,Kamloops,V2C 4B8,50.675468,-120.287924,250-828-0877,,kkdc2250@hotmail.com,Y,N,N,N,N,N,Y,Y,N,Y,Y,N,N,N,N,N,N,Not offered,Include in fee,N,N,N,N,Y,Y,Y,N,Y,N,Y,2021/08/31,https://www.interiorhealth.ca/HedgehogPortal/facility/Table,N,Y,N
3873,Licensed Group,North Vancouver Child Development Centre (Under 36 Months),1090 Berkley Rd,,North Vancouver,V7H 1Y4,49.316947,-123.004659,604-924-0222,,info@nvcdc.ca,N,N,N,N,N,N,N,N,N,N,N,N,N,N,N,N,N,,,N,N,N,N,N,N,N,N,N,N,N,2021/09/27,https://inspections.vcha.ca/ChildCare/Table,N,N,N
3874,Licensed Group,North Vancouver Child Development Centre (Multi-Age),1090 Berkley Rd,,North Vancouver,V7H 1Y4,49.316947,-123.004659,604-924-0222,,info@nvcdc.ca,N,N,N,N,N,N,N,N,N,N,N,N,N,N,N,N,N,,,N,N,N,N,N,N,N,N,N,N,N,2021/09/27,https://inspections.vcha.ca/ChildCare/Table,N,N,N
3875,Licensed Group,Frog Hollow Montessori House,529 Queens Ave,,New Westminster,V3L 1K2,49.207379,-122.912331,604-521-1355,,frogtoo@gmail.com,N,N,N,N,N,N,N,N,N,N,N,N,N,N,N,N,N,,,N,N,N,N,N,N,N,N,N,N,N,2021/09/23,http://www.healthspace.ca/fha/childcare,N,Y,N
3876,Licensed Family,Leandra's Lil' Explorers,1883 Grouse Crt,,Kamloops,V2B 8S9,50.718953,-120.370355,250-320-9392,,lil_explorers@telus.net,Y,N,N,N,N,N,Y,Y,N,Y,Y,N,N,N,N,N,N,Included in fee,Include in fee,N,N,N,N,N,N,N,N,Y,N,N,2021/09/23,https://www.interiorhealth.ca/HedgehogPortal/facility/Table,N,Y,N
3877,Licensed Family,Teddy Bear Family Child Care,1883 Walnut Cres,,Coquitlam,V3J 7T3,49.258627,-122.841871,604-937-3732,,teddybearfcc@gmail.com,N,N,N,N,N,N,N,N,N,N,N,N,N,N,N,N,N,,,N,N,N,N,N,N,N,N,Y,N,N,2021/09/21,http://www.healthspace.ca/fha/childcare,N,Y,N
3878,Licensed Group,Kidsland Childcare Centre,443 5Th St E,,North Vancouver,V7L 1M3,49.310272,-123.064074,604-338-7551,,info@vancouverkidsland.com,N,N,N,N,N,N,N,N,N,N,N,N,N,N,N,N,N,,,N,N,N,N,N,N,N,N,N,N,N,2021/08/24,https://inspections.vcha.ca/ChildCare/Table,N,Y,Y
3879,Licensed Family,Tara Brown's Family Daycare,200 Maliview Dr,,Salt Spring Island,V8K 1B7,48.906188,-123.5294,250-538-0340,,taracbrown@shaw.ca,N,N,N,N,N,N,N,N,N,N,N,N,N,N,N,N,N,,,N,N,N,N,N,N,N,N,N,N,N,2021/09/26,http://www.healthspace.ca/Clients/VIHA/VIHA_Website.nsf/CCFL-Frameset,N,Y,N
3880,Licensed Group,Renaissance Kids,2 - 12491 No. 2 Road,,Richmond,V7E 3M2,49.122624,-123.162122,604-241-0141,,linda@theartsconnection.org,N,N,N,N,N,N,N,N,N,N,N,N,N,N,N,N,N,,,N,N,N,N,N,N,N,Y,N,N,N,2021/09/15,https://inspections.vcha.ca/ChildCare/Table,N,Y,N
3881,Licensed Family,Small Wonders Family Child Care,5006 Walden St,,Vancouver,V5W 2V7,49.239596,-123.099765,778-988-6549,,aileeng04@yahoo.com,N,N,N,N,N,N,N,N,N,N,N,N,N,N,N,N,N,,,N,N,N,N,N,N,N,Y,N,N,N,2021/09/02,http://www.vch.ca/your_environment/facility_licensing/residential_care/inspection_reports/,N,N,N
3882,Licensed Family,Meadowood Munchkins F.C.C.,1915 Pierce Way,,Qualicum Beach,V9K 2V1,49.321158,-124.570179,250-738-0701,,meadowoodmunchkins@gmail.com,N,N,N,N,N,N,N,N,N,N,N,N,N,N,N,N,N,,,N,N,N,N,N,N,N,N,N,N,N,2021/09/21,http://www.healthspace.ca/Clients/VIHA/VIHA_Website.nsf/CCFL-Frameset,N,N,N
3883,Licensed Group,Mulgrave Early Learning Centre,2330 Cypress Lane,,West Vancouver,V7S 3H9,49.349178,-123.196132,604-922-3223,,kchow@mulgrave.com,N,N,N,N,N,N,N,N,N,N,N,N,N,N,N,N,N,,,N,N,N,N,N,N,N,N,N,N,N,2021/09/17,https://inspections.vcha.ca/ChildCare/Table,N,N,N
3884,Licensed Family,Simply Fun Shelbourne,3308 Kingsley St,,Victoria,V8P 4J9,48.451331,-123.332303,250-881-3958,,simplyfunplayschool@shaw.ca,N,N,N,N,N,N,N,N,N,N,N,N,N,N,N,N,N,,,N,N,N,N,N,N,N,Y,Y,N,N,2021/09/01,http://www.healthspace.ca/Clients/VIHA/VIHA_Website.nsf/CCFL-Frameset,N,Y,N
3885,Licensed Group,Tlingit Family Learning Centre,19 Taku Drive,,Atlin,V0W 1A0,59.565333,-133.700598,250-651-7739,,tflc@gov.trtfn.com,Y,N,N,N,N,N,Y,Y,N,N,N,N,N,N,N,N,N,Included in fee,Not offered,N,N,N,Y,Y,Y,N,N,N,N,N,2021/08/11,http://www.healthspace.ca/Clients/NHA/NHA_Website.nsf,N,Y,N
3886,Licensed Family,Web's Angel Keepers,6678 Buena Vista Rd,,Victoria,V8Z 5W7,48.563985,-123.402196,250-889-3876,,webcass@telus.net,N,N,N,N,N,N,N,N,N,N,N,N,N,N,N,N,N,,,N,N,N,N,N,N,N,N,N,N,N,2021/09/15,http://www.healthspace.ca/Clients/VIHA/VIHA_Website.nsf/CCFL-Frameset,N,N,N
3887,Licensed Family,Busy Bee Family Child Care,1787 Garden Ave,,North Vancouver,V7P 3A6,49.325704,-123.119294,778-957-0030,,nafisnikabady@gmail.com,N,N,N,N,N,N,N,N,N,N,N,N,N,N,N,N,N,,,N,N,N,N,N,N,N,N,Y,N,N,2021/09/21,,N,Y,N
3888,Licensed Group,Cousteau L'ecole Francaise Internationale De Vancouver,3657 Fromme Road,,North Vancouver,V7K 2E6,49.342583,-123.044967,604-924-2457,,controller@cousteauschool.org,Y,N,N,N,N,N,N,N,Y,N,N,N,N,N,Y,N,N,Extra fee,Extra fee,Y,Y,Y,N,N,N,N,N,Y,N,N,2021/06/29,http://www.vch.ca/your_environment/facility_licensing/residential_care/inspection_reports/,N,N,Y
3889,Licensed Group,Cousteau L'ecole Francaise Internationale De Vancouver,3657 Fromme Road,,North Vancouver,V7K 2E6,49.342583,-123.044967,604-924-2457,,controller@cousteauschool.org,Y,N,N,N,N,N,N,N,Y,N,N,N,N,N,Y,N,N,Extra fee,Extra fee,Y,N,Y,N,N,N,N,N,N,N,Y,2021/06/29,http://www.vch.ca/your_environment/facility_licensing/residential_care/inspection_reports/,N,N,Y
3890,Licensed Group,Rise N Shine Childcare Center Inc. #2,16784 80Th Ave,,Surrey,V4N 0G9,49.146976,-122.757156,604-779-1940,,risenshinechildcarecenter@gmail.com,N,N,N,N,N,N,N,N,N,N,N,N,N,N,N,N,N,,,N,N,N,N,N,N,N,N,N,N,Y,2021/09/17,http://www.healthspace.ca/fha/childcare,N,Y,N
3891,Licensed Group,Discover Montessori School - Parksville Campus,1223 Smithers Road,,Parksville,V9P 2C1,49.304047,-124.346731,250-753-0649,,office@adm-school.ca,N,N,N,N,N,N,N,N,N,N,N,N,N,N,N,N,N,,,N,N,N,N,N,N,N,N,N,N,N,2021/06/30,http://www.healthspace.ca/Clients/VIHA/VIHA_Website.nsf/CCFL-Frameset,N,Y,N
3892,Licensed Group,Just 4 Kids,911 6Th Street S,,Cranbrook,V1C 1L6,49.502351,-115.767715,250-426-2976,,klevie.ccs@shaw.ca,N,N,N,N,N,N,N,N,N,N,N,N,N,N,N,N,N,,,N,N,N,N,N,N,N,N,Y,N,Y,2021/06/29,https://www.interiorhealth.ca/HedgehogPortal/facility/Table,N,N,N
3893,Licensed Group,Nuxalk Snxaalh Child Care,4 Mile Subdivision (Reserve),,Bella Coola,V0T 1C0,52.390204,-126.361969,250-799-5668,,angela@acwsalcta.ca,,,,,,,,,,,,,,,,,,,,,,,,,,,,,,,,,Y,Y,N
3894,Licensed Group,Smilestones Junior Kindergarten Inc.,4162 Norland Ave,,Burnaby,V5G 3S8,49.247144,-122.973925,604-298-9006,,info.burnaby@smilestones.ca,Y,N,N,N,N,N,Y,Y,N,N,N,N,N,N,N,N,N,Included in fee,Not offered,Y,Y,Y,N,Y,Y,N,N,Y,N,N,2021/09/14,http://www.healthspace.ca/fha/childcare,N,Y,N
3895,Licensed Group,Cambridge Montessori Children's Centre,57 7Th Ave,,New Westminster,V3L 1V9,49.219161,-122.913372,778-668-7188,,info@cambridgemontessori.ca,N,N,N,N,N,N,N,N,N,N,N,N,N,N,N,N,N,,,N,N,N,N,N,N,N,N,Y,N,N,2021/09/06,http://www.healthspace.ca/fha/childcare,N,Y,N
3896,Licensed Group,Creekside Child Development Centre (3-5 Gdc),1 Athletes Way,,Vancouver,V5Y 0B1,49.271788,-123.105714,604-872-5007,,creekside@develop.bc.ca,Y,N,N,N,N,N,N,Y,N,N,N,N,N,N,N,N,N,Not offered,Not offered,N,N,N,N,Y,Y,Y,N,N,N,N,2021/09/17,https://inspections.vcha.ca/ChildCare/Table,N,Y,N
3897,Licensed Group,Creekside Child Development Centre (0-3 Gdc),1 Athletes Way,,Vancouver,V5Y 0B1,49.271788,-123.105714,604-872-5007,,creekside@develop.bc.ca,Y,N,N,N,N,N,Y,N,N,N,N,N,N,N,N,N,N,Not offered,Not offered,N,N,N,N,Y,Y,Y,N,N,N,N,2021/09/17,https://inspections.vcha.ca/ChildCare/Table,N,Y,N
3898,Licensed Group,Happy Feet Childcare Centre,6550 Clinton St,,Burnaby,V5E 1A4,49.212662,-122.968238,604-808-7623,,aec.daycare@hotmail.com,N,N,N,N,N,N,N,N,N,N,N,N,N,N,N,N,N,,,N,N,N,N,N,N,N,Y,N,N,N,2021/07/08,http://www.healthspace.ca/fha/childcare,N,Y,N
3899,Licensed Family,Tulip Japanese Family Child Care,402-1845 Robson St,,Vancouver,V6G 1E4,49.292178,-123.135931,604-434-8853,,nakaba@shaw.ca,N,N,N,N,N,N,N,N,N,N,N,N,N,N,N,N,N,,,N,N,N,N,N,N,N,N,N,N,N,2021/09/15,https://inspections.vcha.ca/ChildCare/Table,N,Y,N
3900,Licensed Group,Little Owl Academy,205 5315 Main St,,Kelowna,V1W 4V3,49.794539,-119.511865,250-764-0122,,amanda.worms@littleowlacademy.ca,N,N,N,N,N,N,N,N,N,N,N,N,N,N,N,N,N,,,N,N,N,N,N,N,N,N,N,N,N,2021/09/10,https://www.interiorhealth.ca/HedgehogPortal/facility/Table,N,Y,N
3901,Licensed Family,Giggleberry Patch Daycare,6280 187 St,,Surrey,V3S 7N8,49.116599,-122.704197,778-574-7877,,giggleberrypatch@shaw.ca,N,N,N,N,N,N,N,N,N,N,N,N,N,N,N,N,N,,,N,N,N,N,N,N,N,Y,Y,N,N,2021/08/25,http://www.healthspace.ca/fha/childcare,N,Y,N
3902,Licensed Family,Ruki's Day Care,4330 Gordon Dr,,Kelowna,V1W 2L3,49.828399,-119.483638,250-764-3664,,ruki1@live.ca,N,N,N,N,N,N,N,N,N,N,N,N,N,N,N,N,N,,,N,N,N,N,N,N,N,N,Y,N,N,2021/09/19,https://www.interiorhealth.ca/HedgehogPortal/facility/Table,N,Y,N
3903,Licensed Family,Hollyday Daycare,6319 Fairview Pl,,Duncan,V9L 3Y6,48.796757,-123.724282,250-710-5583,,mrslatte@shaw.ca,N,N,N,N,N,N,N,N,N,N,N,N,N,N,N,N,N,,,N,N,N,N,N,N,N,N,N,N,N,2021/09/01,http://www.healthspace.ca/Clients/VIHA/VIHA_Website.nsf/CCFL-Frameset,N,Y,N
3904,Licensed Family,Bright Stars Daycare,7726 124 St,,Surrey,V3W 3X5,49.143445,-122.878831,604-591-6261,,iffatjn@hotmail.com,N,N,N,N,N,N,N,N,N,N,N,N,N,N,N,N,N,,,N,N,N,N,N,N,N,Y,Y,N,N,2021/09/21,http://www.healthspace.ca/fha/childcare,N,Y,N
3905,Licensed Group,Five Stars Daycare Centre #2,14790 60Th Ave,,Surrey,V3S 1R7,49.111625,-122.812536,604-543-8972,,fivestars_daycare@yahoo.ca,N,N,N,N,N,N,N,N,N,N,N,N,N,N,N,N,N,,,N,N,N,N,N,N,N,N,Y,N,N,2021/05/17,http://www.healthspace.ca/fha/childcare,N,Y,N
3906,Licensed Group,Seaparc Leisure Complex,2168 Phillips Rd,,Sooke,V9Z 1H4,48.385888,-123.709165,250-642-8000,,seaparc@crd.bc.ca,Y,N,N,N,N,N,N,N,Y,N,N,N,N,N,N,N,N,Not offered,Not offered,Y,N,Y,N,Y,Y,Y,N,N,N,N,2021/05/26,http://www.healthspace.ca/Clients/VIHA/VIHA_Website.nsf/CCFL-Frameset,N,N,N
3907,Licensed Family,Pitter Patter Daycare,1267 Nestor St,,Coquitlam,V3E 1H4,49.290293,-122.778115,604-626-3952,,michelebosa@hotmail.com,N,N,N,N,N,N,N,N,N,N,N,N,N,N,N,N,N,,,N,N,N,N,N,N,N,N,N,N,N,2021/09/01,http://www.healthspace.ca/fha/childcare,N,Y,N
3908,Licensed Group,Glen Childcare,2977 Glen Drive,,Coquitlam,V3B 2P7,49.282952,-122.795136,778-285-3589,,glenchildcare@hotmail.com,N,N,N,N,N,N,N,N,N,N,N,N,N,N,N,N,N,,,N,N,N,N,N,N,N,N,Y,N,N,2021/09/27,http://www.healthspace.ca/fha/childcare,N,Y,N
3909,Licensed Group,Kiddy Junction Academy Division Ii,8686 Hudson,,Vancouver,V6P 4N2,49.207154,-123.134608,604-568-4747,,ccof@kiddyjunction.ca,N,N,N,N,N,N,N,N,N,N,N,N,N,N,N,N,N,,,N,N,N,N,N,N,N,Y,Y,N,N,2021/09/02,https://inspections.vcha.ca/ChildCare/Table,N,Y,N
3910,Licensed Group,Apple Tree Roselea Child Care Centre,8740 Roselea Pl,,Richmond,V7A 2K4,49.135194,-123.127453,604-726-0301,,appletree_childcare@hotmail.com,N,N,N,N,N,N,N,N,N,N,N,N,N,N,N,N,N,,,N,N,N,N,N,N,N,N,N,N,N,2021/09/17,https://inspections.vcha.ca/ChildCare/Table,N,Y,N
3911,Licensed Family,Kids Wonderland Child Care,6781 148 St,,Surrey,V3S 3C7,49.126047,-122.812573,604-591-2249,,nahilashaikh@hotmail.com,N,N,N,N,N,N,N,N,N,N,N,N,N,N,N,N,N,,,N,N,N,N,N,N,N,N,N,N,N,2021/09/17,http://www.healthspace.ca/fha/childcare,N,Y,N
3912,Licensed Group,Lil Bloomers Childcare Centre,195 East Windsor Rd,,North Vancouver,V7N 1J9,49.337978,-123.069024,604-987-7673,,lesleyslilbloomers@gmail.com,N,N,N,N,N,N,N,N,N,N,N,N,N,N,N,N,N,,,N,N,N,N,N,N,N,Y,Y,N,N,2021/09/15,https://inspections.vcha.ca/ChildCare/Table,N,Y,N
3913,Licensed Group,Sea Star Children's Centre - Preschool,1451 Homer St,,Vancouver,V6Z 3C8,49.272304,-123.126357,604-718-6555,,info@vsocc.org,N,N,N,N,N,N,N,N,N,N,N,N,N,N,N,N,N,,,N,N,N,N,N,N,N,N,N,N,N,2021/09/07,https://inspections.vcha.ca/ChildCare/Table,N,N,N
3914,Licensed Group,Sea Star Children's Centre (3-5 Gdc),1451 Homer St,,Vancouver,V6Z 3C8,49.272304,-123.126357,604-718-6555,,info@vsocc.org,N,N,N,N,N,N,N,N,N,N,N,N,N,N,N,N,N,,,N,N,N,N,N,N,N,N,N,N,N,2021/09/07,https://inspections.vcha.ca/ChildCare/Table,N,Y,N
3915,Licensed Group,Sea Star Children's Centre (0-3 Gdc),1451 Homer St,,Vancouver,V6Z 3C8,49.272304,-123.126357,604-718-6555,,info@vsocc.org,N,N,N,N,N,N,N,N,N,N,N,N,N,N,N,N,N,,,N,N,N,N,N,N,N,N,N,N,N,2021/09/23,https://inspections.vcha.ca/ChildCare/Table,N,Y,N
3916,Licensed Group,19 Wing Family Centre,1473 Snowberry Ave,,Lazo,V0R 2K0,48.896942,-125.01049,250-339-8032,,,N,N,N,N,N,N,N,N,N,N,N,N,N,N,N,N,N,,,N,N,N,N,N,N,N,N,N,N,N,2021/09/09,http://www.healthspace.ca/Clients/VIHA/VIHA_Website.nsf/CCFL-Frameset,N,Y,N
3917,Licensed Group,Kinder Kampus - Heritage Mountain,300 Panorama Pl,,Port Moody,V3H 4Z2,49.301996,-122.829773,604-417-9109,,admin@kinderkampus.ca,N,N,N,N,N,N,N,N,N,N,N,N,N,N,N,N,N,,,N,N,N,N,N,N,N,N,Y,N,Y,2021/09/17,http://www.healthspace.ca/fha/childcare,N,Y,N
3918,Licensed Group,Victoria Kids Out & About,3897 Holland Ave,,Victoria,V8Z 5K2,48.46933,-123.422901,250-479-4566,,jjrbolton@shaw.ca,N,N,N,N,N,N,N,N,N,N,N,N,N,N,N,N,N,,,N,N,N,N,N,N,N,N,N,N,N,2021/09/15,http://www.healthspace.ca/Clients/VIHA/VIHA_Website.nsf/CCFL-Frameset,N,Y,N
3919,Licensed Group,Constellation Montessori Daycare,122 Moody St,,Port Moody,V3H 2P8,49.275842,-122.850145,604-461-3172,,vspornicu@gmail.com,N,N,N,N,N,N,N,N,N,N,N,N,N,N,N,N,N,,,N,N,N,N,N,N,N,N,Y,N,N,2021/09/15,http://www.healthspace.ca/fha/childcare,N,Y,N
3920,Licensed Group,Pathway Montessori Children's Center,9025 Glover Rd,,Langley,V1M 2R7,49.166513,-122.582531,604-644-7547,,pathwaylangley@gmail.com,Y,N,N,N,N,N,N,Y,N,N,N,N,N,N,N,N,N,Not offered,Not offered,N,N,N,N,Y,Y,Y,Y,Y,N,N,2021/09/23,http://www.healthspace.ca/fha/childcare,N,Y,N
3921,Licensed Group,Bear Paws Child Care,6842 Gilley Ave,,Burnaby,V5J 4W7,49.221406,-122.971572,604-563-6825,,bearpawschildcare@gmail.com,N,N,N,N,N,N,N,N,N,N,N,N,N,N,N,N,N,,,N,N,N,N,N,N,N,N,N,N,N,2021/09/21,http://www.healthspace.ca/fha/childcare,N,Y,N
3922,Licensed Group,Baby Bears Infant And Toddler Daycare Ltd.,7973 Dunsmuir St,,Mission,V2V 4S2,49.147013,-122.298988,604-826-5612,,joan123@shaw.ca,N,N,N,N,N,N,N,N,N,N,N,N,N,N,N,N,N,,,N,N,N,N,N,N,N,Y,N,N,N,2021/09/15,http://www.healthspace.ca/fha/childcare,N,Y,N
3923,Licensed Group,Hope Infant Toddler Group Daycare,9520 McBurney Dr,,Richmond,V6Y 3C6,49.153293,-123.11788,604-282-7278,,hopeyu8@hotmail.com,Y,N,N,N,N,N,Y,N,N,N,N,Y,N,Y,N,N,N,Not offered,Not offered,N,N,N,N,N,N,N,N,N,N,N,2021/09/15,https://inspections.vcha.ca/ChildCare/Table,N,Y,N
3924,Licensed Group,Cambridge Learning Centre Inc,14898 Spencer Dr,,Surrey,V3S 7K7,49.157327,-122.809731,604-655-5005,,cambridgelearning@gmail.com,N,N,N,N,N,N,N,N,N,N,N,N,N,N,N,N,N,,,N,N,N,N,N,N,N,N,Y,Y,Y,2021/08/26,,N,Y,N
3925,Licensed Group,Caterpillar Fun House #1,101 - 9868 120Th St,,Surrey,V3V 4C9,49.182035,-122.889729,604-589-0009,,jo@caterpillarfunhouse.com,N,N,N,N,N,N,N,N,N,N,N,N,N,N,N,N,N,,,N,N,N,N,N,N,N,N,N,N,N,2021/09/15,http://www.healthspace.ca/fha/childcare,N,Y,N
3926,Licensed Group,Kamloops Village Garden Montessori Early Learning Center,700 Hugh Allan Drive,,Kamloops,V1S 1N3,50.651205,-120.355985,250-374-4264,,jckl.education@icloud.com,N,N,N,N,N,N,N,N,N,N,N,N,N,N,N,N,N,,,N,N,N,N,N,N,N,Y,N,Y,Y,2021/09/08,https://www.interiorhealth.ca/HedgehogPortal/facility/Table,N,Y,N
3927,Licensed Group,Creekside Child Development Centre (Preschool),1 Athletes Way,,Vancouver,V5Y 0B1,49.271788,-123.105714,604-872-5007,,creekside@develop.bc.ca,Y,N,N,N,N,N,N,Y,N,N,N,N,N,N,N,N,N,Not offered,Not offered,N,Y,N,N,Y,Y,Y,N,N,N,N,2021/09/17,https://inspections.vcha.ca/ChildCare/Table,N,N,N
3928,Licensed Family,Fun And Learn Day Care Centre,7811 1488 St,,Surrey,V3S 3G1,49.145639,-122.81258,778-990-1871,,azharrehana@yahoo.ca,N,N,N,N,N,N,N,N,N,N,N,N,N,N,N,N,N,,,N,N,N,N,N,N,N,Y,Y,N,Y,2021/09/16,http://www.healthspace.ca/fha/childcare,N,Y,N
3929,Licensed Group,Creative Kids Montessori & Fine Arts Academy (Multi-Age),2663 West King Edward,,Vancouver,V6L 1T5,49.248444,-123.164317,604-612-9281,,creativekidsmontessori@shaw.ca,N,N,N,N,N,N,N,N,N,N,N,N,N,N,N,N,N,,,N,N,N,N,N,N,N,N,N,N,N,2021/09/15,https://inspections.vcha.ca/ChildCare/Table,N,Y,N
3930,Licensed Group,Hudson Preschool,1502 Maple,,Vancouver,V6J 3L3,49.272061,-123.150213,604-733-8674,,admin@hudsonchildcare.ca,N,N,N,N,N,N,N,N,N,N,N,N,N,N,N,N,N,,,N,N,N,N,N,N,N,N,N,Y,N,2021/09/09,https://inspections.vcha.ca/ChildCare/Table,N,N,N
3931,Licensed Family,Play-N-Grow Childcare Centre Inc.,13639 92 Ave,,Surrey,V3V 7J2,49.170207,-122.844695,604-782-3546,,dhaniasha@gmail.com,N,N,N,N,N,N,N,N,N,N,N,N,N,N,N,N,N,,,N,N,N,N,N,N,N,Y,Y,N,Y,2021/09/27,http://www.healthspace.ca/fha/childcare,N,Y,N
3932,Licensed Group,New Horizon Montessori School Ltd,20338 91A Ave,,Langley,V1M 2G2,49.168254,-122.658665,604-552-7542,,aldonasieja@hotmail.com,N,N,N,N,N,N,N,N,N,N,N,N,N,N,N,N,N,,,N,N,N,N,N,N,N,N,Y,N,N,2021/08/26,http://www.healthspace.ca/fha/childcare,N,Y,N
3933,Licensed Group,Little Friends Early Learning Centre,B 4830 Headquarters Road,,Courtenay,V9N 7P2,49.709499,-124.999375,250-338-8445,,teddies@tntls.com,N,N,N,N,N,N,N,N,N,N,N,N,N,N,N,N,N,,,N,N,N,N,N,N,N,N,N,N,N,2021/09/27,http://www.healthspace.ca/Clients/VIHA/VIHA_Website.nsf/CCFL-Frameset,N,Y,N
3934,Licensed Group,University Hill Kinderclub (Preschool),5395 Chancellor Blvd,,Vancouver,V6T 1E2,49.27423,-123.237318,604-222-0700,,uhillkinderclub@yahoo.ca,N,N,N,N,N,N,N,N,N,N,N,N,N,N,N,N,N,,,N,N,N,N,N,N,N,N,N,Y,N,2021/06/30,https://inspections.vcha.ca/ChildCare/Table,N,N,N
3935,Licensed Group,Curious Minds Learning Centre Ltd,20820 River Rd,,Maple Ridge,V2X 1Z7,49.211976,-122.644278,604-315-3240,,curiousmindslearning@shaw.ca,N,N,N,N,N,N,N,N,N,N,N,N,N,N,N,N,N,,,N,N,N,N,N,N,N,N,N,N,Y,2021/06/21,,N,Y,N
3936,Licensed Group,Almosthome Goldstream It,999 Goldstream Avenue,,Victoria,V9B 2Y2,48.449781,-123.513032,250-590-7666,,almosthomechildcare@shaw.ca,N,N,N,N,N,N,N,N,N,N,N,N,N,N,N,N,N,,,N,N,N,N,N,N,N,N,N,N,N,2021/09/07,http://www.healthspace.ca/Clients/VIHA/VIHA_Website.nsf/CCFL-Frameset,N,Y,N
3937,Licensed Group,King's Christian Preschool,3151 6 Ave Ne,,Salmon Arm,V1E 1J2,50.704687,-119.249368,250-463-5200,,finance@kingschristianschool.com,N,N,N,N,N,N,N,N,N,N,N,N,N,N,N,N,N,,,N,N,N,N,N,N,N,N,N,N,N,2021/06/15,https://www.interiorhealth.ca/HedgehogPortal/facility/Table,N,N,N
3938,Licensed Group,Kuddles Early Infant Stimulation Centre,370 Mathers Avenue,,West Vancouver,V7S 1H3,49.336941,-123.125435,604-729-6538,,info@kuddles.ca,N,N,N,N,N,N,N,N,N,N,N,N,N,N,N,N,N,,,N,N,N,N,N,N,N,N,N,N,N,2021/09/02,https://inspections.vcha.ca/ChildCare/Table,N,Y,N
3939,Licensed Group,Little Scholars Montessori & Children's Village,1555 McLean St,,Trail,V1R 1Z1,49.09753,-117.695349,250-368-6789,,lsmcv@shaw.ca,N,N,N,N,N,N,N,N,N,N,N,N,N,N,N,N,N,,,N,N,N,N,N,N,N,Y,Y,N,N,2021/09/15,https://www.interiorhealth.ca/HedgehogPortal/facility/Table,N,Y,N
3940,Licensed Group,Early Learning Childcare Centre,3635 Coast Meridian Rd,,Port Coquitlam,V3B 3N9,49.276944,-122.756568,604-475-4809,,tolearnearly@yahoo.com,N,N,N,N,N,N,N,N,N,N,N,N,N,N,N,N,N,,,N,N,N,N,N,N,N,Y,N,N,N,2021/09/15,http://www.healthspace.ca/fha/childcare,N,Y,N
3941,Licensed Group,Artscalibre Academy,3220 Cedar Hill Road,,Victoria,V8P 3Y3,48.449406,-123.343183,250-382-3533,,info@artscalibre.ca,N,N,N,N,N,N,N,N,N,N,N,N,N,N,N,N,N,,,N,N,N,N,N,N,N,N,N,Y,N,2021/07/11,http://www.healthspace.ca/Clients/VIHA/VIHA_Website.nsf/CCFL-Frameset,N,N,N
3942,Licensed Group,Creative All Stars Childcare,13474 96Th Ave,,Surrey,V3V 1Y9,49.176855,-122.849014,604-306-4073,,m_bilg@yahoo.ca,N,N,N,N,N,N,N,N,N,N,N,N,N,N,N,N,N,,,N,N,N,N,N,N,N,N,N,Y,N,2021/09/13,http://www.healthspace.ca/fha/childcare,N,Y,N
3943,Licensed Group,New Hope Child Care (3-5 Gdc),2551 East 49Th Ave,,Vancouver,V5S 1J6,49.225122,-123.055457,604-321-6130,,,N,N,N,N,N,N,N,N,N,N,N,N,N,N,N,N,N,,,N,N,N,N,N,N,N,N,Y,N,N,2021/09/19,https://inspections.vcha.ca/ChildCare/Table,N,Y,N
3944,Licensed Group,Shalom Day Care,1461 Blanshard,,Victoria,V8W 2J3,48.427422,-123.361364,778-977-2898,,shalomdaycare@hotmail.com,N,N,N,N,N,N,N,N,N,N,N,N,N,N,N,N,N,,,N,N,N,N,N,N,N,N,N,N,N,2021/09/12,http://www.healthspace.ca/Clients/VIHA/VIHA_Website.nsf/CCFL-Frameset,N,Y,N
